[{"zoomLevel": 150, "dataType": "spikeHex", "data": [{"hoverLabel": "Guanh\u00e3es MG", "pos": {"lat": -18.771046, "lng": -42.93182}, "height": 400000, "color": "rgba(255,255,255,1)"}, {"hoverLabel": "Paris", "pos": {"lat": 48.853027, "lng": 2.3499904}, "height": 102800000, "color": "rgba(255,255,255,1)"}, {"hoverLabel": "Mammoth Lakes CA", "pos": {"lat": 37.648544, "lng": -118.97208}, "height": 200000, "color": "rgba(255,255,255,1)"}, {"hoverLabel": "Harold KY", "pos": {"lat": 37.536915, "lng": -82.63404}, "height": 200000, "color": "rgba(255,255,255,1)"}, {"hoverLabel": "Secret Town CA", "pos": {"lat": 39.15712, "lng": -120.877716}, "height": 200000, "color": "rgba(255,255,255,1)"}, {"hoverLabel": "Colchester", "pos": {"lat": 51.895927, "lng": 0.891874}, "height": 800000, "color": "rgba(255,255,255,1)"}, {"hoverLabel": "Puerto Deseado", "pos": {"lat": -47.751564, "lng": -65.901375}, "height": 800000, "color": "rgba(255,255,255,1)"}, {"hoverLabel": "Queenborough", "pos": {"lat": 51.417286, "lng": 0.7470207}, "height": 200000, "color": "rgba(255,255,255,1)"}, {"hoverLabel": "Santa Barbara CA", "pos": {"lat": 34.42083, "lng": -119.69819}, "height": 800000, "color": "rgba(255,255,255,1)"}, {"hoverLabel": "Bodmin", "pos": {"lat": 50.471497, "lng": -4.718863}, "height": 200000, "color": "rgba(255,255,255,1)"}, {"hoverLabel": "Algeciras", "pos": {"lat": 36.14076, "lng": -5.456233}, "height": 400000, "color": "rgba(255,255,255,1)"}, {"hoverLabel": "Chiclayo", "pos": {"lat": -6.7700796, "lng": -79.85499}, "height": 1000000, "color": "rgba(255,255,255,1)"}, {"hoverLabel": "Kisoro", "pos": {"lat": -1.220943, "lng": 29.649916}, "height": 200000, "color": "rgba(255,255,255,1)"}, {"hoverLabel": "G\u00f6ksun", "pos": {"lat": 38.020382, "lng": 36.49487}, "height": 200000, "color": "rgba(255,255,255,1)"}, {"hoverLabel": "Evanston IL", "pos": {"lat": 42.04507, "lng": -87.6877}, "height": 400000, "color": "rgba(255,255,255,1)"}, {"hoverLabel": "Sylhet", "pos": {"lat": 24.89493, "lng": 91.868706}, "height": 400000, "color": "rgba(255,255,255,1)"}, {"hoverLabel": "Taxco", "pos": {"lat": 18.556547, "lng": -99.60512}, "height": 400000, "color": "rgba(255,255,255,1)"}, {"hoverLabel": "Kayanga", "pos": {"lat": -1.532374, "lng": 31.150993}, "height": 200000, "color": "rgba(255,255,255,1)"}, {"hoverLabel": "Plainfield VT", "pos": {"lat": 44.278114, "lng": -72.42649}, "height": 200000, "color": "rgba(255,255,255,1)"}, {"hoverLabel": "Kihei HI", "pos": {"lat": 20.73994, "lng": -156.4542}, "height": 200000, "color": "rgba(255,255,255,1)"}, {"hoverLabel": "Al-Malikiyah", "pos": {"lat": 37.176662, "lng": 42.13559}, "height": 200000, "color": "rgba(255,255,255,1)"}, {"hoverLabel": "Alcantarilla", "pos": {"lat": 37.969517, "lng": -1.2193422}, "height": 200000, "color": "rgba(255,255,255,1)"}, {"hoverLabel": "Lan\u00fas", "pos": {"lat": -34.699417, "lng": -58.39263}, "height": 400000, "color": "rgba(255,255,255,1)"}, {"hoverLabel": "Chaozhou", "pos": {"lat": 23.656704, "lng": 116.62276}, "height": 400000, "color": "rgba(255,255,255,1)"}, {"hoverLabel": "Manzanares", "pos": {"lat": 39.00429, "lng": -3.3719192}, "height": 200000, "color": "rgba(255,255,255,1)"}, {"hoverLabel": "Changchun", "pos": {"lat": 43.81707, "lng": 125.32355}, "height": 400000, "color": "rgba(255,255,255,1)"}, {"hoverLabel": "Qingyuan", "pos": {"lat": 23.681774, "lng": 113.056046}, "height": 400000, "color": "rgba(255,255,255,1)"}, {"hoverLabel": "Castellar del Vall\u00e8s", "pos": {"lat": 41.617233, "lng": 2.0873256}, "height": 200000, "color": "rgba(255,255,255,1)"}, {"hoverLabel": "Soyo", "pos": {"lat": -6.1410265, "lng": 12.352115}, "height": 200000, "color": "rgba(255,255,255,1)"}, {"hoverLabel": "Huambo", "pos": {"lat": -12.773976, "lng": 15.746854}, "height": 200000, "color": "rgba(255,255,255,1)"}, {"hoverLabel": "Uige", "pos": {"lat": -7.6102104, "lng": 15.061586}, "height": 200000, "color": "rgba(255,255,255,1)"}, {"hoverLabel": "Benguela", "pos": {"lat": -12.590516, "lng": 13.416501}, "height": 200000, "color": "rgba(255,255,255,1)"}, {"hoverLabel": "Trevignano Romano", "pos": {"lat": 42.157562, "lng": 12.243143}, "height": 400000, "color": "rgba(255,255,255,1)"}, {"hoverLabel": "Mdantsane", "pos": {"lat": -32.945965, "lng": 27.725609}, "height": 200000, "color": "rgba(255,255,255,1)"}, {"hoverLabel": "Cabinda", "pos": {"lat": -5.570574, "lng": 12.197583}, "height": 200000, "color": "rgba(255,255,255,1)"}, {"hoverLabel": "Lubango", "pos": {"lat": -14.918613, "lng": 13.532124}, "height": 200000, "color": "rgba(255,255,255,1)"}, {"hoverLabel": "N'dalatando", "pos": {"lat": -9.299392, "lng": 14.909684}, "height": 200000, "color": "rgba(255,255,255,1)"}, {"hoverLabel": "Dundo", "pos": {"lat": -7.374178, "lng": 20.819529}, "height": 200000, "color": "rgba(255,255,255,1)"}, {"hoverLabel": "Angoul\u00eame", "pos": {"lat": 45.647877, "lng": 0.1433442}, "height": 400000, "color": "rgba(255,255,255,1)"}, {"hoverLabel": "Brandsen", "pos": {"lat": -35.167953, "lng": -58.237377}, "height": 200000, "color": "rgba(255,255,255,1)"}, {"hoverLabel": "Laredo", "pos": {"lat": 43.40963, "lng": -3.428383}, "height": 1400000, "color": "rgba(255,255,255,1)"}, {"hoverLabel": "Opovo", "pos": {"lat": 45.047573, "lng": 20.433308}, "height": 200000, "color": "rgba(255,255,255,1)"}, {"hoverLabel": "Muzhi", "pos": {"lat": 65.4026, "lng": 64.70599}, "height": 200000, "color": "rgba(255,255,255,1)"}, {"hoverLabel": "\u0106uprija", "pos": {"lat": 43.925247, "lng": 21.373495}, "height": 200000, "color": "rgba(255,255,255,1)"}, {"hoverLabel": "Pu\u0142awy", "pos": {"lat": 51.416443, "lng": 21.969309}, "height": 200000, "color": "rgba(255,255,255,1)"}, {"hoverLabel": "Hasenkamp", "pos": {"lat": -31.512009, "lng": -59.83621}, "height": 200000, "color": "rgba(255,255,255,1)"}, {"hoverLabel": "Diamante", "pos": {"lat": -32.06971, "lng": -60.63787}, "height": 200000, "color": "rgba(255,255,255,1)"}, {"hoverLabel": "Torre del Greco", "pos": {"lat": 40.789444, "lng": 14.367461}, "height": 600000, "color": "rgba(255,255,255,1)"}, {"hoverLabel": "Sunbury", "pos": {"lat": -37.581112, "lng": 144.71388}, "height": 200000, "color": "rgba(255,255,255,1)"}, {"hoverLabel": "Sapna", "pos": {"lat": 44.493423, "lng": 19.000181}, "height": 200000, "color": "rgba(255,255,255,1)"}, {"hoverLabel": "Cerro Azul PR", "pos": {"lat": -24.825726, "lng": -49.262844}, "height": 200000, "color": "rgba(255,255,255,1)"}, {"hoverLabel": "Yungay", "pos": {"lat": -9.138416, "lng": -77.74235}, "height": 200000, "color": "rgba(255,255,255,1)"}, {"hoverLabel": "Palotina PR", "pos": {"lat": -24.281744, "lng": -53.834656}, "height": 200000, "color": "rgba(255,255,255,1)"}, {"hoverLabel": "Mount Jackson VA", "pos": {"lat": 38.74595, "lng": -78.642235}, "height": 200000, "color": "rgba(255,255,255,1)"}, {"hoverLabel": "Langhirano", "pos": {"lat": 44.61455, "lng": 10.268695}, "height": 200000, "color": "rgba(255,255,255,1)"}, {"hoverLabel": "Hillsville VA", "pos": {"lat": 36.762627, "lng": -80.734795}, "height": 200000, "color": "rgba(255,255,255,1)"}, {"hoverLabel": "Boynton Beach FL", "pos": {"lat": 26.531786, "lng": -80.090546}, "height": 200000, "color": "rgba(255,255,255,1)"}, {"hoverLabel": "Ypan\u00e9", "pos": {"lat": -25.45, "lng": -57.53}, "height": 200000, "color": "rgba(255,255,255,1)"}, {"hoverLabel": "Montanha ES", "pos": {"lat": -18.127003, "lng": -40.363697}, "height": 200000, "color": "rgba(255,255,255,1)"}, {"hoverLabel": "Willingboro NJ", "pos": {"lat": 40.028847, "lng": -74.89165}, "height": 200000, "color": "rgba(255,255,255,1)"}, {"hoverLabel": "Har\u012bpur", "pos": {"lat": 33.994648, "lng": 72.91062}, "height": 200000, "color": "rgba(255,255,255,1)"}, {"hoverLabel": "Oju", "pos": {"lat": 6.8907084, "lng": 8.352656}, "height": 200000, "color": "rgba(255,255,255,1)"}, {"hoverLabel": "Granville", "pos": {"lat": 48.837578, "lng": -1.597302}, "height": 600000, "color": "rgba(255,255,255,1)"}, {"hoverLabel": "Jimeta", "pos": {"lat": 9.2485485, "lng": 12.449522}, "height": 200000, "color": "rgba(255,255,255,1)"}, {"hoverLabel": "Salto do Jacu\u00ed RS", "pos": {"lat": -29.089264, "lng": -53.21141}, "height": 200000, "color": "rgba(255,255,255,1)"}, {"hoverLabel": "Lumbini", "pos": {"lat": 27.483334, "lng": 83.28333}, "height": 200000, "color": "rgba(255,255,255,1)"}, {"hoverLabel": "Curuz\u00fa Cuati\u00e1", "pos": {"lat": -29.790337, "lng": -58.05805}, "height": 400000, "color": "rgba(255,255,255,1)"}, {"hoverLabel": "Winterset IA", "pos": {"lat": 41.330822, "lng": -94.01384}, "height": 200000, "color": "rgba(255,255,255,1)"}, {"hoverLabel": "Cornelia GA", "pos": {"lat": 34.51149, "lng": -83.527115}, "height": 200000, "color": "rgba(255,255,255,1)"}, {"hoverLabel": "Pljevlja", "pos": {"lat": 43.35824, "lng": 19.35126}, "height": 200000, "color": "rgba(255,255,255,1)"}, {"hoverLabel": "Pharr TX", "pos": {"lat": 26.194796, "lng": -98.183624}, "height": 200000, "color": "rgba(255,255,255,1)"}, {"hoverLabel": "Delaware OH", "pos": {"lat": 40.29867, "lng": -83.06796}, "height": 200000, "color": "rgba(255,255,255,1)"}, {"hoverLabel": "Attleboro MA", "pos": {"lat": 41.944546, "lng": -71.28561}, "height": 200000, "color": "rgba(255,255,255,1)"}, {"hoverLabel": "Strathroy", "pos": {"lat": 42.95542, "lng": -81.62323}, "height": 200000, "color": "rgba(255,255,255,1)"}, {"hoverLabel": "Huayacocotla", "pos": {"lat": 20.537449, "lng": -98.47601}, "height": 200000, "color": "rgba(255,255,255,1)"}, {"hoverLabel": "Ville Platte LA", "pos": {"lat": 30.687975, "lng": -92.271515}, "height": 200000, "color": "rgba(255,255,255,1)"}, {"hoverLabel": "Old Bridge Township NJ", "pos": {"lat": 40.412853, "lng": -74.30728}, "height": 400000, "color": "rgba(255,255,255,1)"}, {"hoverLabel": "Maitencillo", "pos": {"lat": -32.64834, "lng": -71.43805}, "height": 200000, "color": "rgba(255,255,255,1)"}, {"hoverLabel": "Rivi\u00e8re-Pilote", "pos": {"lat": 14.482587, "lng": -60.905758}, "height": 200000, "color": "rgba(255,255,255,1)"}, {"hoverLabel": "Kazo", "pos": {"lat": -0.051128, "lng": 30.756546}, "height": 200000, "color": "rgba(255,255,255,1)"}, {"hoverLabel": "Tisbury MA", "pos": {"lat": 41.456112, "lng": -70.611115}, "height": 400000, "color": "rgba(255,255,255,1)"}, {"hoverLabel": "Situbondo", "pos": {"lat": -7.7058444, "lng": 114.00607}, "height": 200000, "color": "rgba(255,255,255,1)"}, {"hoverLabel": "Milton Keynes", "pos": {"lat": 52.040623, "lng": -0.7594171}, "height": 2000000, "color": "rgba(255,255,255,1)"}, {"hoverLabel": "Sopetr\u00e1n", "pos": {"lat": 6.501534, "lng": -75.7434}, "height": 200000, "color": "rgba(255,255,255,1)"}, {"hoverLabel": "Karawang", "pos": {"lat": -6.3, "lng": 107}, "height": 200000, "color": "rgba(255,255,255,1)"}, {"hoverLabel": "Punta del Este", "pos": {"lat": -34.93688, "lng": -54.92815}, "height": 1600000, "color": "rgba(255,255,255,1)"}, {"hoverLabel": "Tucunduva RS", "pos": {"lat": -27.658583, "lng": -54.441776}, "height": 200000, "color": "rgba(255,255,255,1)"}, {"hoverLabel": "Painan", "pos": {"lat": -1.348545, "lng": 100.5745}, "height": 200000, "color": "rgba(255,255,255,1)"}, {"hoverLabel": "Maykop", "pos": {"lat": 44.59841, "lng": 40.108086}, "height": 200000, "color": "rgba(255,255,255,1)"}, {"hoverLabel": "Envigado", "pos": {"lat": 6.169611, "lng": -75.587364}, "height": 800000, "color": "rgba(255,255,255,1)"}, {"hoverLabel": "Saboy\u00e1", "pos": {"lat": 5.697783, "lng": -73.76493}, "height": 200000, "color": "rgba(255,255,255,1)"}, {"hoverLabel": "Nueva Imperial", "pos": {"lat": -38.7409, "lng": -72.946754}, "height": 200000, "color": "rgba(255,255,255,1)"}, {"hoverLabel": "El Monte", "pos": {"lat": -33.68153, "lng": -70.9854}, "height": 200000, "color": "rgba(255,255,255,1)"}, {"hoverLabel": "Mariquita", "pos": {"lat": 5.199505, "lng": -74.88683}, "height": 200000, "color": "rgba(255,255,255,1)"}, {"hoverLabel": "Quinchao", "pos": {"lat": -42.53813, "lng": -73.41877}, "height": 200000, "color": "rgba(255,255,255,1)"}, {"hoverLabel": "Laja", "pos": {"lat": -37.271423, "lng": -72.71949}, "height": 200000, "color": "rgba(255,255,255,1)"}, {"hoverLabel": "San Crist\u00f3bal", "pos": {"lat": -25.893904, "lng": -55.463776}, "height": 200000, "color": "rgba(255,255,255,1)"}, {"hoverLabel": "Mariano Roque Alonso", "pos": {"lat": -25.203094, "lng": -57.524364}, "height": 200000, "color": "rgba(255,255,255,1)"}, {"hoverLabel": "Lago Ranco", "pos": {"lat": -40.32116, "lng": -72.482216}, "height": 200000, "color": "rgba(255,255,255,1)"}, {"hoverLabel": "Romeral", "pos": {"lat": -34.933334, "lng": -71.316666}, "height": 200000, "color": "rgba(255,255,255,1)"}, {"hoverLabel": "Presidente Franco", "pos": {"lat": -25.561504, "lng": -54.633606}, "height": 200000, "color": "rgba(255,255,255,1)"}, {"hoverLabel": "Tres Palmas", "pos": {"lat": -25.1508, "lng": -55.560764}, "height": 200000, "color": "rgba(255,255,255,1)"}, {"hoverLabel": "Ca\u00f1ete", "pos": {"lat": -37.80582, "lng": -73.391975}, "height": 200000, "color": "rgba(255,255,255,1)"}, {"hoverLabel": "San Gregorio de Polanco", "pos": {"lat": -32.614956, "lng": -55.830116}, "height": 200000, "color": "rgba(255,255,255,1)"}, {"hoverLabel": "Puelo", "pos": {"lat": -41.66541, "lng": -72.29683}, "height": 200000, "color": "rgba(255,255,255,1)"}, {"hoverLabel": "Colonia Friesland", "pos": {"lat": -24.615852, "lng": -56.714}, "height": 200000, "color": "rgba(255,255,255,1)"}, {"hoverLabel": "Neuland Colony", "pos": {"lat": -22.65053, "lng": -60.129}, "height": 200000, "color": "rgba(255,255,255,1)"}, {"hoverLabel": "O Carballi\u00f1o", "pos": {"lat": 42.431633, "lng": -8.077508}, "height": 200000, "color": "rgba(255,255,255,1)"}, {"hoverLabel": "Cha\u00f1aral Alto", "pos": {"lat": -30.885109, "lng": -71.01481}, "height": 200000, "color": "rgba(255,255,255,1)"}, {"hoverLabel": "Chill\u00e1n Viejo", "pos": {"lat": -36.629105, "lng": -72.13979}, "height": 200000, "color": "rgba(255,255,255,1)"}, {"hoverLabel": "Simpson Bay", "pos": {"lat": 18.038565, "lng": -63.11633}, "height": 200000, "color": "rgba(255,255,255,1)"}, {"hoverLabel": "Puerto L\u00f3pez", "pos": {"lat": 4.091354, "lng": -72.95592}, "height": 200000, "color": "rgba(255,255,255,1)"}, {"hoverLabel": "Zanja Pyt\u00e1", "pos": {"lat": -22.629639, "lng": -55.631496}, "height": 200000, "color": "rgba(255,255,255,1)"}, {"hoverLabel": "Latacunga", "pos": {"lat": -0.9339953, "lng": -78.61457}, "height": 600000, "color": "rgba(255,255,255,1)"}, {"hoverLabel": "El Pe\u00f1\u00f3n", "pos": {"lat": 8.989701, "lng": -73.9501}, "height": 200000, "color": "rgba(255,255,255,1)"}, {"hoverLabel": "Malalhue", "pos": {"lat": -38.95911, "lng": -73.28953}, "height": 200000, "color": "rgba(255,255,255,1)"}, {"hoverLabel": "Palmdale CA", "pos": {"lat": 34.579433, "lng": -118.11646}, "height": 200000, "color": "rgba(255,255,255,1)"}, {"hoverLabel": "Ybycu\u00ed", "pos": {"lat": -26.019636, "lng": -57.019615}, "height": 200000, "color": "rgba(255,255,255,1)"}, {"hoverLabel": "Ciudad Real", "pos": {"lat": 38.984524, "lng": -3.9271462}, "height": 1000000, "color": "rgba(255,255,255,1)"}, {"hoverLabel": "Hernandarias", "pos": {"lat": -25.406898, "lng": -54.642403}, "height": 200000, "color": "rgba(255,255,255,1)"}, {"hoverLabel": "Kachkanar", "pos": {"lat": 58.697857, "lng": 59.492905}, "height": 200000, "color": "rgba(255,255,255,1)"}, {"hoverLabel": "Caacup\u00e9", "pos": {"lat": -25.382269, "lng": -57.144314}, "height": 200000, "color": "rgba(255,255,255,1)"}, {"hoverLabel": "Mayor Ota\u00f1o", "pos": {"lat": -26.30181, "lng": -54.71924}, "height": 200000, "color": "rgba(255,255,255,1)"}, {"hoverLabel": "Santana", "pos": {"lat": 32.801933, "lng": -16.879807}, "height": 200000, "color": "rgba(255,255,255,1)"}, {"hoverLabel": "Mulch\u00e9n", "pos": {"lat": -37.71788, "lng": -72.237434}, "height": 200000, "color": "rgba(255,255,255,1)"}, {"hoverLabel": "Coronel Bogado", "pos": {"lat": -27.161179, "lng": -56.24264}, "height": 200000, "color": "rgba(255,255,255,1)"}, {"hoverLabel": "Colonia General D\u00edaz", "pos": {"lat": -24.7, "lng": -54.95}, "height": 200000, "color": "rgba(255,255,255,1)"}, {"hoverLabel": "Carapegu\u00e1", "pos": {"lat": -25.764364, "lng": -57.24234}, "height": 200000, "color": "rgba(255,255,255,1)"}, {"hoverLabel": "Ayolas", "pos": {"lat": -27.38639, "lng": -56.847977}, "height": 200000, "color": "rgba(255,255,255,1)"}, {"hoverLabel": "Upton KY", "pos": {"lat": 37.464912, "lng": -85.89343}, "height": 200000, "color": "rgba(255,255,255,1)"}, {"hoverLabel": "Cartagena", "pos": {"lat": -33.54825, "lng": -71.604576}, "height": 200000, "color": "rgba(255,255,255,1)"}, {"hoverLabel": "Combarbal\u00e1", "pos": {"lat": -31.179096, "lng": -71.0051}, "height": 200000, "color": "rgba(255,255,255,1)"}, {"hoverLabel": "Naranjal", "pos": {"lat": -25.971802, "lng": -55.19002}, "height": 200000, "color": "rgba(255,255,255,1)"}, {"hoverLabel": "Lo Barnechea", "pos": {"lat": -33.35267, "lng": -70.51852}, "height": 200000, "color": "rgba(255,255,255,1)"}, {"hoverLabel": "Capit\u00e1n Pastene", "pos": {"lat": -38.195114, "lng": -72.99173}, "height": 200000, "color": "rgba(255,255,255,1)"}, {"hoverLabel": "San L\u00e1zaro", "pos": {"lat": -22.10661, "lng": -57.963135}, "height": 200000, "color": "rgba(255,255,255,1)"}, {"hoverLabel": "Saltillo", "pos": {"lat": 25.426723, "lng": -100.99542}, "height": 2800000, "color": "rgba(255,255,255,1)"}, {"hoverLabel": "Maule", "pos": {"lat": -35.518692, "lng": -71.69342}, "height": 200000, "color": "rgba(255,255,255,1)"}, {"hoverLabel": "Santiago de Puriscal", "pos": {"lat": 9.849876, "lng": -84.31645}, "height": 200000, "color": "rgba(255,255,255,1)"}, {"hoverLabel": "Rehoboth Beach DE", "pos": {"lat": 38.720947, "lng": -75.07601}, "height": 600000, "color": "rgba(255,255,255,1)"}, {"hoverLabel": "Pebble Beach CA", "pos": {"lat": 36.566387, "lng": -121.94667}, "height": 200000, "color": "rgba(255,255,255,1)"}, {"hoverLabel": "Carmen del Paran\u00e1", "pos": {"lat": -27.219736, "lng": -56.15329}, "height": 200000, "color": "rgba(255,255,255,1)"}, {"hoverLabel": "Par\u00e1 de Minas MG", "pos": {"lat": -19.86498, "lng": -44.60164}, "height": 1000000, "color": "rgba(255,255,255,1)"}, {"hoverLabel": "Caapuc\u00fa", "pos": {"lat": -26.232325, "lng": -57.18591}, "height": 200000, "color": "rgba(255,255,255,1)"}, {"hoverLabel": "Klagetoh AZ", "pos": {"lat": 35.501328, "lng": -109.52811}, "height": 200000, "color": "rgba(255,255,255,1)"}, {"hoverLabel": "R\u00edo Bueno", "pos": {"lat": -40.33134, "lng": -72.94854}, "height": 200000, "color": "rgba(255,255,255,1)"}, {"hoverLabel": "Tir\u00faa", "pos": {"lat": -38.341915, "lng": -73.495514}, "height": 200000, "color": "rgba(255,255,255,1)"}, {"hoverLabel": "Vilc\u00fan", "pos": {"lat": -38.667717, "lng": -72.22444}, "height": 200000, "color": "rgba(255,255,255,1)"}, {"hoverLabel": "Los Vilos", "pos": {"lat": -31.912186, "lng": -71.5112}, "height": 200000, "color": "rgba(255,255,255,1)"}, {"hoverLabel": "David", "pos": {"lat": 8.400728, "lng": -82.44278}, "height": 1000000, "color": "rgba(255,255,255,1)"}, {"hoverLabel": "Burgas", "pos": {"lat": 42.50479, "lng": 27.462637}, "height": 1200000, "color": "rgba(255,255,255,1)"}, {"hoverLabel": "Puerto Ays\u00e9n", "pos": {"lat": -45.403545, "lng": -72.68642}, "height": 200000, "color": "rgba(255,255,255,1)"}, {"hoverLabel": "Monte Patria", "pos": {"lat": -30.697895, "lng": -70.95869}, "height": 200000, "color": "rgba(255,255,255,1)"}, {"hoverLabel": "R\u00edo Claro", "pos": {"lat": -35.280827, "lng": -71.25995}, "height": 200000, "color": "rgba(255,255,255,1)"}, {"hoverLabel": "Pica", "pos": {"lat": -20.489483, "lng": -69.33051}, "height": 200000, "color": "rgba(255,255,255,1)"}, {"hoverLabel": "Guarambare", "pos": {"lat": -25.496187, "lng": -57.451412}, "height": 200000, "color": "rgba(255,255,255,1)"}, {"hoverLabel": "Puerto Cisnes", "pos": {"lat": -44.72992, "lng": -72.68228}, "height": 200000, "color": "rgba(255,255,255,1)"}, {"hoverLabel": "Padre Hurtado", "pos": {"lat": -33.569534, "lng": -70.815674}, "height": 200000, "color": "rgba(255,255,255,1)"}, {"hoverLabel": "Casablanca", "pos": {"lat": -33.31904, "lng": -71.40763}, "height": 200000, "color": "rgba(255,255,255,1)"}, {"hoverLabel": "Banos", "pos": {"lat": -1.3928344, "lng": -78.42687}, "height": 200000, "color": "rgba(255,255,255,1)"}, {"hoverLabel": "Puerto Octay", "pos": {"lat": -40.976837, "lng": -72.88196}, "height": 200000, "color": "rgba(255,255,255,1)"}, {"hoverLabel": "Molina", "pos": {"lat": -35.116497, "lng": -71.282974}, "height": 200000, "color": "rgba(255,255,255,1)"}, {"hoverLabel": "San Vicente de Tagua Tagua", "pos": {"lat": -34.434944, "lng": -71.09138}, "height": 200000, "color": "rgba(255,255,255,1)"}, {"hoverLabel": "Uromi", "pos": {"lat": 6.713975, "lng": 6.3279243}, "height": 200000, "color": "rgba(255,255,255,1)"}, {"hoverLabel": "Lampa", "pos": {"lat": -33.28271, "lng": -70.879326}, "height": 200000, "color": "rgba(255,255,255,1)"}, {"hoverLabel": "Los Andes", "pos": {"lat": -32.8338, "lng": -70.59722}, "height": 200000, "color": "rgba(255,255,255,1)"}, {"hoverLabel": "Bibli\u00e1n", "pos": {"lat": -2.7137878, "lng": -78.889244}, "height": 200000, "color": "rgba(255,255,255,1)"}, {"hoverLabel": "Livingstone", "pos": {"lat": -17.851978, "lng": 25.828516}, "height": 200000, "color": "rgba(255,255,255,1)"}, {"hoverLabel": "Cha\u00f1aral", "pos": {"lat": -26.343197, "lng": -70.614365}, "height": 200000, "color": "rgba(255,255,255,1)"}, {"hoverLabel": "Padre Las Casas", "pos": {"lat": -38.7667, "lng": -72.6}, "height": 200000, "color": "rgba(255,255,255,1)"}, {"hoverLabel": "Traigu\u00e9n", "pos": {"lat": -38.25, "lng": -72.6833}, "height": 200000, "color": "rgba(255,255,255,1)"}, {"hoverLabel": "Hualaihu\u00e9", "pos": {"lat": -42.02138, "lng": -72.68911}, "height": 200000, "color": "rgba(255,255,255,1)"}, {"hoverLabel": "Aix", "pos": {"lat": 50.49435, "lng": 3.296177}, "height": 200000, "color": "rgba(255,255,255,1)"}, {"hoverLabel": "Panguipulli", "pos": {"lat": -39.6416, "lng": -72.337006}, "height": 200000, "color": "rgba(255,255,255,1)"}, {"hoverLabel": "San Esteban", "pos": {"lat": -32.8005, "lng": -70.5798}, "height": 200000, "color": "rgba(255,255,255,1)"}, {"hoverLabel": "Fayette IA", "pos": {"lat": 42.8425, "lng": -91.803055}, "height": 200000, "color": "rgba(255,255,255,1)"}, {"hoverLabel": "Calypso NC", "pos": {"lat": 35.153774, "lng": -78.10527}, "height": 200000, "color": "rgba(255,255,255,1)"}, {"hoverLabel": "Conc\u00f3n", "pos": {"lat": -32.929947, "lng": -71.51861}, "height": 200000, "color": "rgba(255,255,255,1)"}, {"hoverLabel": "Lota", "pos": {"lat": -37.092056, "lng": -73.15458}, "height": 200000, "color": "rgba(255,255,255,1)"}, {"hoverLabel": "Buin", "pos": {"lat": -33.730938, "lng": -70.742325}, "height": 200000, "color": "rgba(255,255,255,1)"}, {"hoverLabel": "Senigallia", "pos": {"lat": 43.71979, "lng": 13.215222}, "height": 200000, "color": "rgba(255,255,255,1)"}, {"hoverLabel": "Hibat Tzion", "pos": {"lat": 32.397995, "lng": 34.91193}, "height": 200000, "color": "rgba(255,255,255,1)"}, {"hoverLabel": "Catamayo", "pos": {"lat": -3.9879754, "lng": -79.35357}, "height": 800000, "color": "rgba(255,255,255,1)"}, {"hoverLabel": "St. Louis MO", "pos": {"lat": 38.627003, "lng": -90.1994}, "height": 4600000, "color": "rgba(255,255,255,1)"}, {"hoverLabel": "Galvarino", "pos": {"lat": -38.413567, "lng": -72.78186}, "height": 200000, "color": "rgba(255,255,255,1)"}, {"hoverLabel": "Johor Bahru", "pos": {"lat": 1.4783324, "lng": 103.65454}, "height": 800000, "color": "rgba(255,255,255,1)"}, {"hoverLabel": "Cochrane", "pos": {"lat": -47.254723, "lng": -72.575}, "height": 200000, "color": "rgba(255,255,255,1)"}, {"hoverLabel": "Pe\u00f1alol\u00e9n", "pos": {"lat": -33.471912, "lng": -70.56278}, "height": 200000, "color": "rgba(255,255,255,1)"}, {"hoverLabel": "Blora", "pos": {"lat": -6.9691277, "lng": 111.41867}, "height": 200000, "color": "rgba(255,255,255,1)"}, {"hoverLabel": "Olmu\u00e9", "pos": {"lat": -32.99583, "lng": -71.1813}, "height": 200000, "color": "rgba(255,255,255,1)"}, {"hoverLabel": "Tortel", "pos": {"lat": -47.801537, "lng": -73.53585}, "height": 200000, "color": "rgba(255,255,255,1)"}, {"hoverLabel": "Isla Negra", "pos": {"lat": -33.442223, "lng": -71.68528}, "height": 200000, "color": "rgba(255,255,255,1)"}, {"hoverLabel": "Pringsewu", "pos": {"lat": -5.3331, "lng": 104.9856}, "height": 200000, "color": "rgba(255,255,255,1)"}, {"hoverLabel": "Suring WI", "pos": {"lat": 44.999157, "lng": -88.37205}, "height": 200000, "color": "rgba(255,255,255,1)"}, {"hoverLabel": "Chimbarongo", "pos": {"lat": -34.70924, "lng": -71.041275}, "height": 200000, "color": "rgba(255,255,255,1)"}, {"hoverLabel": "Orenburg", "pos": {"lat": 51.766647, "lng": 55.100452}, "height": 1400000, "color": "rgba(255,255,255,1)"}, {"hoverLabel": "Futaleufu", "pos": {"lat": -43.1833, "lng": -71.8667}, "height": 200000, "color": "rgba(255,255,255,1)"}, {"hoverLabel": "Tanjung Morawa", "pos": {"lat": 3.5299766, "lng": 98.807785}, "height": 200000, "color": "rgba(255,255,255,1)"}, {"hoverLabel": "Arenal del Sur", "pos": {"lat": 8.45917, "lng": -73.94093}, "height": 200000, "color": "rgba(255,255,255,1)"}, {"hoverLabel": "Malloa", "pos": {"lat": -34.440556, "lng": -70.944756}, "height": 200000, "color": "rgba(255,255,255,1)"}, {"hoverLabel": "Chin\u00fa", "pos": {"lat": 9.105964, "lng": -75.40153}, "height": 200000, "color": "rgba(255,255,255,1)"}, {"hoverLabel": "Beijing", "pos": {"lat": 39.90421, "lng": 116.407394}, "height": 800000, "color": "rgba(255,255,255,1)"}, {"hoverLabel": "San Javier", "pos": {"lat": -35.593098, "lng": -71.732506}, "height": 200000, "color": "rgba(255,255,255,1)"}, {"hoverLabel": "Reykjav\u00edk", "pos": {"lat": 64.12652, "lng": -21.81744}, "height": 3200000, "color": "rgba(255,255,255,1)"}, {"hoverLabel": "G\u00f3mez Plata", "pos": {"lat": 6.681789, "lng": -75.219734}, "height": 200000, "color": "rgba(255,255,255,1)"}, {"hoverLabel": "Huasco", "pos": {"lat": -28.4664, "lng": -71.2192}, "height": 200000, "color": "rgba(255,255,255,1)"}, {"hoverLabel": "Quemchi", "pos": {"lat": -42.14276, "lng": -73.47432}, "height": 200000, "color": "rgba(255,255,255,1)"}, {"hoverLabel": "Ponto Novo BA", "pos": {"lat": -10.864929, "lng": -40.133877}, "height": 200000, "color": "rgba(255,255,255,1)"}, {"hoverLabel": "Cabrera", "pos": {"lat": 19.626354, "lng": -69.90006}, "height": 200000, "color": "rgba(255,255,255,1)"}, {"hoverLabel": "S\u00e3o Benedito CE", "pos": {"lat": -4.044907, "lng": -40.86514}, "height": 200000, "color": "rgba(255,255,255,1)"}, {"hoverLabel": "Vicente Guerrero", "pos": {"lat": 23.732008, "lng": -103.98333}, "height": 200000, "color": "rgba(255,255,255,1)"}, {"hoverLabel": "Freudenstadt", "pos": {"lat": 48.46448, "lng": 8.417999}, "height": 200000, "color": "rgba(255,255,255,1)"}, {"hoverLabel": "Cintalapa", "pos": {"lat": 16.685953, "lng": -93.72856}, "height": 200000, "color": "rgba(255,255,255,1)"}, {"hoverLabel": "De Queen AR", "pos": {"lat": 34.03789, "lng": -94.34132}, "height": 200000, "color": "rgba(255,255,255,1)"}, {"hoverLabel": "Tonal\u00e1", "pos": {"lat": 20.623741, "lng": -103.24137}, "height": 200000, "color": "rgba(255,255,255,1)"}, {"hoverLabel": "Cupertino CA", "pos": {"lat": 37.323055, "lng": -122.031944}, "height": 200000, "color": "rgba(255,255,255,1)"}, {"hoverLabel": "S\u00e3o Sebasti\u00e3o do Anta MG", "pos": {"lat": -19.5069, "lng": -41.985447}, "height": 200000, "color": "rgba(255,255,255,1)"}, {"hoverLabel": "Coihueco", "pos": {"lat": -36.628193, "lng": -71.83418}, "height": 200000, "color": "rgba(255,255,255,1)"}, {"hoverLabel": "El Carmen", "pos": {"lat": -36.9, "lng": -72.0333}, "height": 200000, "color": "rgba(255,255,255,1)"}, {"hoverLabel": "Bishkek", "pos": {"lat": 42.874622, "lng": 74.56976}, "height": 1200000, "color": "rgba(255,255,255,1)"}, {"hoverLabel": "Tulsa OK", "pos": {"lat": 36.15398, "lng": -95.992775}, "height": 2400000, "color": "rgba(255,255,255,1)"}, {"hoverLabel": "Paute", "pos": {"lat": -2.7957206, "lng": -78.767456}, "height": 200000, "color": "rgba(255,255,255,1)"}, {"hoverLabel": "Pichidegua", "pos": {"lat": -34.35605, "lng": -71.28579}, "height": 200000, "color": "rgba(255,255,255,1)"}, {"hoverLabel": "Pirque", "pos": {"lat": -33.687473, "lng": -70.58838}, "height": 200000, "color": "rgba(255,255,255,1)"}, {"hoverLabel": "Argostolion", "pos": {"lat": 38.17317, "lng": 20.489973}, "height": 800000, "color": "rgba(255,255,255,1)"}, {"hoverLabel": "Pichilemu", "pos": {"lat": -34.386726, "lng": -72.004776}, "height": 200000, "color": "rgba(255,255,255,1)"}, {"hoverLabel": "Wondai", "pos": {"lat": -26.317833, "lng": 151.87273}, "height": 200000, "color": "rgba(255,255,255,1)"}, {"hoverLabel": "Toulon", "pos": {"lat": 43.12423, "lng": 5.928}, "height": 800000, "color": "rgba(255,255,255,1)"}, {"hoverLabel": "Serran\u00f3polis do Igua\u00e7u PR", "pos": {"lat": -25.380249, "lng": -54.053936}, "height": 200000, "color": "rgba(255,255,255,1)"}, {"hoverLabel": "Osmaniye", "pos": {"lat": 37.074627, "lng": 36.2464}, "height": 200000, "color": "rgba(255,255,255,1)"}, {"hoverLabel": "Talagante", "pos": {"lat": -33.663746, "lng": -70.92739}, "height": 200000, "color": "rgba(255,255,255,1)"}, {"hoverLabel": "Cha\u00f1ar Ladeado", "pos": {"lat": -33.324486, "lng": -62.04129}, "height": 200000, "color": "rgba(255,255,255,1)"}, {"hoverLabel": "Chait\u00e9n", "pos": {"lat": -42.9167, "lng": -72.7167}, "height": 200000, "color": "rgba(255,255,255,1)"}, {"hoverLabel": "Pinhal Grande RS", "pos": {"lat": -29.33702, "lng": -53.341427}, "height": 200000, "color": "rgba(255,255,255,1)"}, {"hoverLabel": "Dalcahue", "pos": {"lat": -42.377632, "lng": -73.65188}, "height": 200000, "color": "rgba(255,255,255,1)"}, {"hoverLabel": "Serodino", "pos": {"lat": -32.60557, "lng": -60.948383}, "height": 200000, "color": "rgba(255,255,255,1)"}, {"hoverLabel": "Itarema CE", "pos": {"lat": -2.9209864, "lng": -39.916763}, "height": 200000, "color": "rgba(255,255,255,1)"}, {"hoverLabel": "Litueche", "pos": {"lat": -34.11727, "lng": -71.725174}, "height": 200000, "color": "rgba(255,255,255,1)"}, {"hoverLabel": "Coltauco", "pos": {"lat": -34.287796, "lng": -71.08555}, "height": 200000, "color": "rgba(255,255,255,1)"}, {"hoverLabel": "Novo Air\u00e3o AM", "pos": {"lat": -2.6231883, "lng": -60.94314}, "height": 200000, "color": "rgba(255,255,255,1)"}, {"hoverLabel": "El Quisco", "pos": {"lat": -33.398598, "lng": -71.69815}, "height": 200000, "color": "rgba(255,255,255,1)"}, {"hoverLabel": "Arapoti PR", "pos": {"lat": -24.14536, "lng": -49.826824}, "height": 200000, "color": "rgba(255,255,255,1)"}, {"hoverLabel": "Caj\u00f3n", "pos": {"lat": -38.68031, "lng": -72.50663}, "height": 200000, "color": "rgba(255,255,255,1)"}, {"hoverLabel": "Candeias BA", "pos": {"lat": -12.686965, "lng": -38.463963}, "height": 200000, "color": "rgba(255,255,255,1)"}, {"hoverLabel": "Diyarbak\u0131r", "pos": {"lat": 37.924973, "lng": 40.210983}, "height": 600000, "color": "rgba(255,255,255,1)"}, {"hoverLabel": "Canela", "pos": {"lat": -31.389978, "lng": -71.38479}, "height": 200000, "color": "rgba(255,255,255,1)"}, {"hoverLabel": "Quintero", "pos": {"lat": -32.77231, "lng": -71.5333}, "height": 200000, "color": "rgba(255,255,255,1)"}, {"hoverLabel": "Curanilahue", "pos": {"lat": -37.476242, "lng": -73.342125}, "height": 200000, "color": "rgba(255,255,255,1)"}, {"hoverLabel": "Kostroma", "pos": {"lat": 57.77748, "lng": 40.969894}, "height": 600000, "color": "rgba(255,255,255,1)"}, {"hoverLabel": "Los Muermos", "pos": {"lat": -41.39941, "lng": -73.46499}, "height": 200000, "color": "rgba(255,255,255,1)"}, {"hoverLabel": "Simferopol", "pos": {"lat": 44.952118, "lng": 34.102417}, "height": 1000000, "color": "rgba(255,255,255,1)"}, {"hoverLabel": "Manari PE", "pos": {"lat": -8.965322, "lng": -37.631638}, "height": 200000, "color": "rgba(255,255,255,1)"}, {"hoverLabel": "Nong Khai", "pos": {"lat": 17.87828, "lng": 102.741264}, "height": 200000, "color": "rgba(255,255,255,1)"}, {"hoverLabel": "Modena", "pos": {"lat": 44.64713, "lng": 10.925227}, "height": 3600000, "color": "rgba(255,255,255,1)"}, {"hoverLabel": "Diourbel", "pos": {"lat": 14.656124, "lng": -16.234564}, "height": 200000, "color": "rgba(255,255,255,1)"}, {"hoverLabel": "Deloraine", "pos": {"lat": -41.52405, "lng": 146.65285}, "height": 200000, "color": "rgba(255,255,255,1)"}, {"hoverLabel": "Alcira", "pos": {"lat": -32.758427, "lng": -64.33641}, "height": 200000, "color": "rgba(255,255,255,1)"}, {"hoverLabel": "Scranton PA", "pos": {"lat": 41.40897, "lng": -75.662415}, "height": 1200000, "color": "rgba(255,255,255,1)"}, {"hoverLabel": "Campo Gallo", "pos": {"lat": -26.583477, "lng": -62.845238}, "height": 200000, "color": "rgba(255,255,255,1)"}, {"hoverLabel": "Santos SP", "pos": {"lat": -23.967882, "lng": -46.328888}, "height": 3800000, "color": "rgba(255,255,255,1)"}, {"hoverLabel": "A Estrada", "pos": {"lat": 42.689873, "lng": -8.490967}, "height": 200000, "color": "rgba(255,255,255,1)"}, {"hoverLabel": "Santa Izabel do Par\u00e1 PA", "pos": {"lat": -1.299225, "lng": -48.161842}, "height": 200000, "color": "rgba(255,255,255,1)"}, {"hoverLabel": "Uau\u00e1 BA", "pos": {"lat": -9.833673, "lng": -39.47975}, "height": 200000, "color": "rgba(255,255,255,1)"}, {"hoverLabel": "San Adri\u00e1n", "pos": {"lat": 42.335724, "lng": -1.9367994}, "height": 200000, "color": "rgba(255,255,255,1)"}, {"hoverLabel": "Gustavia", "pos": {"lat": 17.896435, "lng": -62.8522}, "height": 400000, "color": "rgba(255,255,255,1)"}, {"hoverLabel": "Wallasey", "pos": {"lat": 53.42652, "lng": -3.066215}, "height": 1200000, "color": "rgba(255,255,255,1)"}, {"hoverLabel": "Toa Baja", "pos": {"lat": 18.444471, "lng": -66.254326}, "height": 400000, "color": "rgba(255,255,255,1)"}, {"hoverLabel": "Umhlanga", "pos": {"lat": -29.726881, "lng": 31.082272}, "height": 2600000, "color": "rgba(255,255,255,1)"}, {"hoverLabel": "Itacoatiara AM", "pos": {"lat": -3.142778, "lng": -58.44389}, "height": 200000, "color": "rgba(255,255,255,1)"}, {"hoverLabel": "Yala", "pos": {"lat": 6.541102, "lng": 101.28041}, "height": 200000, "color": "rgba(255,255,255,1)"}, {"hoverLabel": "Haarlem", "pos": {"lat": 52.387386, "lng": 4.6462193}, "height": 800000, "color": "rgba(255,255,255,1)"}, {"hoverLabel": "Phitsanulok", "pos": {"lat": 16.821123, "lng": 100.265854}, "height": 200000, "color": "rgba(255,255,255,1)"}, {"hoverLabel": "Kozarska Dubica", "pos": {"lat": 45.177986, "lng": 16.813074}, "height": 400000, "color": "rgba(255,255,255,1)"}, {"hoverLabel": "Negombo", "pos": {"lat": 7.2007966, "lng": 79.87367}, "height": 200000, "color": "rgba(255,255,255,1)"}, {"hoverLabel": "Terra Nova PE", "pos": {"lat": -8.222876, "lng": -39.38285}, "height": 200000, "color": "rgba(255,255,255,1)"}, {"hoverLabel": "Errenteria", "pos": {"lat": 43.30811, "lng": -1.8912823}, "height": 200000, "color": "rgba(255,255,255,1)"}, {"hoverLabel": "Sergiyev Posad", "pos": {"lat": 56.315178, "lng": 38.136707}, "height": 400000, "color": "rgba(255,255,255,1)"}, {"hoverLabel": "Pader", "pos": {"lat": 2.9430683, "lng": 32.80845}, "height": 200000, "color": "rgba(255,255,255,1)"}, {"hoverLabel": "Uman'", "pos": {"lat": 48.769928, "lng": 30.21544}, "height": 200000, "color": "rgba(255,255,255,1)"}, {"hoverLabel": "Col\u00edder MT", "pos": {"lat": -10.804868, "lng": -55.45601}, "height": 400000, "color": "rgba(255,255,255,1)"}, {"hoverLabel": "Farnborough", "pos": {"lat": 51.286896, "lng": -0.752615}, "height": 200000, "color": "rgba(255,255,255,1)"}, {"hoverLabel": "Macas", "pos": {"lat": -2.307438, "lng": -78.12023}, "height": 400000, "color": "rgba(255,255,255,1)"}, {"hoverLabel": "Les Planes d'Hostoles", "pos": {"lat": 42.056385, "lng": 2.5383646}, "height": 200000, "color": "rgba(255,255,255,1)"}, {"hoverLabel": "Fort Scott KS", "pos": {"lat": 37.839764, "lng": -94.7083}, "height": 400000, "color": "rgba(255,255,255,1)"}, {"hoverLabel": "Els Hostalets de Baleny\u00e0", "pos": {"lat": 41.81249, "lng": 2.2348542}, "height": 200000, "color": "rgba(255,255,255,1)"}, {"hoverLabel": "Camberley", "pos": {"lat": 51.33539, "lng": -0.742856}, "height": 200000, "color": "rgba(255,255,255,1)"}, {"hoverLabel": "Sierra Vista AZ", "pos": {"lat": 31.5455, "lng": -110.27728}, "height": 200000, "color": "rgba(255,255,255,1)"}, {"hoverLabel": "Lake City MN", "pos": {"lat": 44.4493, "lng": -92.26669}, "height": 200000, "color": "rgba(255,255,255,1)"}, {"hoverLabel": "Tequisquiapan", "pos": {"lat": 20.518732, "lng": -99.885056}, "height": 400000, "color": "rgba(255,255,255,1)"}, {"hoverLabel": "Mouscron", "pos": {"lat": 50.745914, "lng": 3.2192907}, "height": 400000, "color": "rgba(255,255,255,1)"}, {"hoverLabel": "Villa del Totoral", "pos": {"lat": -30.706047, "lng": -64.06759}, "height": 200000, "color": "rgba(255,255,255,1)"}, {"hoverLabel": "Conneaut OH", "pos": {"lat": 41.947556, "lng": -80.55424}, "height": 200000, "color": "rgba(255,255,255,1)"}, {"hoverLabel": "Singapore", "pos": {"lat": 1.3553793, "lng": 103.867744}, "height": 5200000, "color": "rgba(255,255,255,1)"}, {"hoverLabel": "Victoria", "pos": {"lat": -32.621586, "lng": -60.157536}, "height": 400000, "color": "rgba(255,255,255,1)"}, {"hoverLabel": "Luj\u00e1n de Cuyo", "pos": {"lat": -32.998055, "lng": -68.87261}, "height": 200000, "color": "rgba(255,255,255,1)"}, {"hoverLabel": "California PA", "pos": {"lat": 40.065628, "lng": -79.891716}, "height": 200000, "color": "rgba(255,255,255,1)"}, {"hoverLabel": "Parana\u00edba MS", "pos": {"lat": -19.67511, "lng": -51.191334}, "height": 600000, "color": "rgba(255,255,255,1)"}, {"hoverLabel": "Barkly East", "pos": {"lat": -30.969074, "lng": 27.590672}, "height": 200000, "color": "rgba(255,255,255,1)"}, {"hoverLabel": "Trbovlje", "pos": {"lat": 46.150356, "lng": 15.045314}, "height": 200000, "color": "rgba(255,255,255,1)"}, {"hoverLabel": "Hayama", "pos": {"lat": 35.26676, "lng": 139.59221}, "height": 400000, "color": "rgba(255,255,255,1)"}, {"hoverLabel": "Trenque Lauquen", "pos": {"lat": -35.973278, "lng": -62.732597}, "height": 600000, "color": "rgba(255,255,255,1)"}, {"hoverLabel": "Monte Grande", "pos": {"lat": -34.82718, "lng": -58.462013}, "height": 600000, "color": "rgba(255,255,255,1)"}, {"hoverLabel": "Zhongshan", "pos": {"lat": 22.517586, "lng": 113.39277}, "height": 400000, "color": "rgba(255,255,255,1)"}, {"hoverLabel": "Window Rock AZ", "pos": {"lat": 35.680573, "lng": -109.05259}, "height": 200000, "color": "rgba(255,255,255,1)"}, {"hoverLabel": "Gallatin TN", "pos": {"lat": 36.388382, "lng": -86.44666}, "height": 200000, "color": "rgba(255,255,255,1)"}, {"hoverLabel": "Chanco", "pos": {"lat": -35.745434, "lng": -72.53149}, "height": 400000, "color": "rgba(255,255,255,1)"}, {"hoverLabel": "San Antonio", "pos": {"lat": -33.592262, "lng": -71.605316}, "height": 400000, "color": "rgba(255,255,255,1)"}, {"hoverLabel": "New Town ND", "pos": {"lat": 47.980846, "lng": -102.49018}, "height": 200000, "color": "rgba(255,255,255,1)"}, {"hoverLabel": "Pangkal Pinang", "pos": {"lat": -2.1316266, "lng": 106.11693}, "height": 400000, "color": "rgba(255,255,255,1)"}, {"hoverLabel": "Huala\u00f1\u00e9", "pos": {"lat": -34.972515, "lng": -71.79934}, "height": 400000, "color": "rgba(255,255,255,1)"}, {"hoverLabel": "Marib", "pos": {"lat": 15.470031, "lng": 45.322857}, "height": 200000, "color": "rgba(255,255,255,1)"}, {"hoverLabel": "Rawson", "pos": {"lat": -43.29986, "lng": -65.09949}, "height": 600000, "color": "rgba(255,255,255,1)"}, {"hoverLabel": "Pelluhue", "pos": {"lat": -35.81418, "lng": -72.57503}, "height": 400000, "color": "rgba(255,255,255,1)"}, {"hoverLabel": "Reigate", "pos": {"lat": 51.237274, "lng": -0.205883}, "height": 400000, "color": "rgba(255,255,255,1)"}, {"hoverLabel": "S\u00e3o Joaquim SC", "pos": {"lat": -28.292456, "lng": -49.937588}, "height": 600000, "color": "rgba(255,255,255,1)"}, {"hoverLabel": "Hamilton", "pos": {"lat": 55.777634, "lng": -4.053679}, "height": 400000, "color": "rgba(255,255,255,1)"}, {"hoverLabel": "Lamia", "pos": {"lat": 38.895973, "lng": 22.4349}, "height": 400000, "color": "rgba(255,255,255,1)"}, {"hoverLabel": "La Uni\u00f3n", "pos": {"lat": -40.295277, "lng": -73.07933}, "height": 400000, "color": "rgba(255,255,255,1)"}, {"hoverLabel": "San Ignacio", "pos": {"lat": -36.532887, "lng": -72.43329}, "height": 400000, "color": "rgba(255,255,255,1)"}, {"hoverLabel": "Bayam\u00f3n", "pos": {"lat": 18.369196, "lng": -66.16605}, "height": 800000, "color": "rgba(255,255,255,1)"}, {"hoverLabel": "Serafina Corr\u00eaa RS", "pos": {"lat": -28.717182, "lng": -51.9157}, "height": 400000, "color": "rgba(255,255,255,1)"}, {"hoverLabel": "Miss\u00e3o Velha CE", "pos": {"lat": -7.24965, "lng": -39.14544}, "height": 400000, "color": "rgba(255,255,255,1)"}, {"hoverLabel": "Osogbo", "pos": {"lat": 7.782671, "lng": 4.5418143}, "height": 2400000, "color": "rgba(255,255,255,1)"}, {"hoverLabel": "Almada", "pos": {"lat": 38.676525, "lng": -9.165105}, "height": 600000, "color": "rgba(255,255,255,1)"}, {"hoverLabel": "Ovalle", "pos": {"lat": -30.604303, "lng": -71.19699}, "height": 400000, "color": "rgba(255,255,255,1)"}, {"hoverLabel": "Petorca", "pos": {"lat": -32.25, "lng": -70.9333}, "height": 400000, "color": "rgba(255,255,255,1)"}, {"hoverLabel": "Muscat", "pos": {"lat": 23.58589, "lng": 58.405922}, "height": 2600000, "color": "rgba(255,255,255,1)"}, {"hoverLabel": "Coronel", "pos": {"lat": -37.034077, "lng": -73.14048}, "height": 400000, "color": "rgba(255,255,255,1)"}, {"hoverLabel": "Adapazar\u0131", "pos": {"lat": 40.791176, "lng": 30.40586}, "height": 600000, "color": "rgba(255,255,255,1)"}, {"hoverLabel": "Penza", "pos": {"lat": 53.22729, "lng": 45}, "height": 600000, "color": "rgba(255,255,255,1)"}, {"hoverLabel": "Addis Ababa", "pos": {"lat": 8.980603, "lng": 38.75776}, "height": 2200000, "color": "rgba(255,255,255,1)"}, {"hoverLabel": "Nijmegen", "pos": {"lat": 51.81256, "lng": 5.8372264}, "height": 1000000, "color": "rgba(255,255,255,1)"}, {"hoverLabel": "Edenvale", "pos": {"lat": -26.132627, "lng": 28.17663}, "height": 600000, "color": "rgba(255,255,255,1)"}, {"hoverLabel": "Grand Rapids MN", "pos": {"lat": 47.237167, "lng": -93.53021}, "height": 600000, "color": "rgba(255,255,255,1)"}, {"hoverLabel": "Aci Sant'Antonio", "pos": {"lat": 37.606255, "lng": 15.12597}, "height": 400000, "color": "rgba(255,255,255,1)"}, {"hoverLabel": "Carterville IL", "pos": {"lat": 37.76005, "lng": -89.0773}, "height": 600000, "color": "rgba(255,255,255,1)"}, {"hoverLabel": "Ojodu Berger", "pos": {"lat": 6.6470275, "lng": 3.3741646}, "height": 200000, "color": "rgba(255,255,255,1)"}, {"hoverLabel": "Aiterhofen", "pos": {"lat": 48.845715, "lng": 12.620233}, "height": 600000, "color": "rgba(255,255,255,1)"}, {"hoverLabel": "Baarn", "pos": {"lat": 52.213184, "lng": 5.2864094}, "height": 200000, "color": "rgba(255,255,255,1)"}, {"hoverLabel": "Ayacucho", "pos": {"lat": -37.15027, "lng": -58.48297}, "height": 400000, "color": "rgba(255,255,255,1)"}, {"hoverLabel": "Gmunden", "pos": {"lat": 47.91839, "lng": 13.79933}, "height": 400000, "color": "rgba(255,255,255,1)"}, {"hoverLabel": "Ejutla de Crespo", "pos": {"lat": 16.564749, "lng": -96.73067}, "height": 200000, "color": "rgba(255,255,255,1)"}, {"hoverLabel": "Olanchito", "pos": {"lat": 15.486132, "lng": -86.59054}, "height": 400000, "color": "rgba(255,255,255,1)"}, {"hoverLabel": "Ipia\u00fa BA", "pos": {"lat": -14.134912, "lng": -39.738567}, "height": 400000, "color": "rgba(255,255,255,1)"}, {"hoverLabel": "Pesaro", "pos": {"lat": 43.912476, "lng": 12.915549}, "height": 800000, "color": "rgba(255,255,255,1)"}, {"hoverLabel": "McHenry IL", "pos": {"lat": 42.333355, "lng": -88.266754}, "height": 400000, "color": "rgba(255,255,255,1)"}, {"hoverLabel": "Passo Fundo RS", "pos": {"lat": -28.258781, "lng": -52.416004}, "height": 2200000, "color": "rgba(255,255,255,1)"}, {"hoverLabel": "Tulua", "pos": {"lat": 4.089869, "lng": -76.1915}, "height": 1400000, "color": "rgba(255,255,255,1)"}, {"hoverLabel": "Tuxtla Guti\u00e9rrez", "pos": {"lat": 16.7516, "lng": -93.103}, "height": 600000, "color": "rgba(255,255,255,1)"}, {"hoverLabel": "Porto de M\u00f3s", "pos": {"lat": 39.602276, "lng": -8.816566}, "height": 200000, "color": "rgba(255,255,255,1)"}, {"hoverLabel": "Carhuaz", "pos": {"lat": -9.281744, "lng": -77.64502}, "height": 200000, "color": "rgba(255,255,255,1)"}, {"hoverLabel": "Losser", "pos": {"lat": 52.26285, "lng": 7.0057855}, "height": 200000, "color": "rgba(255,255,255,1)"}, {"hoverLabel": "Winchester", "pos": {"lat": 51.059772, "lng": -1.310142}, "height": 800000, "color": "rgba(255,255,255,1)"}, {"hoverLabel": "Cherbourg", "pos": {"lat": -26.289253, "lng": 151.9568}, "height": 200000, "color": "rgba(255,255,255,1)"}, {"hoverLabel": "Itapema SC", "pos": {"lat": -27.096067, "lng": -48.61781}, "height": 400000, "color": "rgba(255,255,255,1)"}, {"hoverLabel": "Arruda dos Vinhos", "pos": {"lat": 38.98355, "lng": -9.077459}, "height": 200000, "color": "rgba(255,255,255,1)"}, {"hoverLabel": "G\u00e1lvez", "pos": {"lat": -32.029274, "lng": -61.224422}, "height": 400000, "color": "rgba(255,255,255,1)"}, {"hoverLabel": "Bella Vista", "pos": {"lat": -34.563705, "lng": -58.6904}, "height": 200000, "color": "rgba(255,255,255,1)"}, {"hoverLabel": "Cuautla", "pos": {"lat": 18.812605, "lng": -98.95483}, "height": 200000, "color": "rgba(255,255,255,1)"}, {"hoverLabel": "Cachoeirinha RS", "pos": {"lat": -29.947723, "lng": -51.102116}, "height": 200000, "color": "rgba(255,255,255,1)"}, {"hoverLabel": "Taltal", "pos": {"lat": -25.40628, "lng": -70.479836}, "height": 400000, "color": "rgba(255,255,255,1)"}, {"hoverLabel": "Irbid", "pos": {"lat": 32.55681, "lng": 35.846886}, "height": 200000, "color": "rgba(255,255,255,1)"}, {"hoverLabel": "Paterno", "pos": {"lat": 37.56718, "lng": 14.901757}, "height": 200000, "color": "rgba(255,255,255,1)"}, {"hoverLabel": "Santos Dumont MG", "pos": {"lat": -21.456263, "lng": -43.551926}, "height": 200000, "color": "rgba(255,255,255,1)"}, {"hoverLabel": "Zomba", "pos": {"lat": -15.376586, "lng": 35.33565}, "height": 200000, "color": "rgba(255,255,255,1)"}, {"hoverLabel": "Wollongong", "pos": {"lat": -34.42781, "lng": 150.89307}, "height": 800000, "color": "rgba(255,255,255,1)"}, {"hoverLabel": "Pontes e Lacerda MT", "pos": {"lat": -15.233227, "lng": -59.328243}, "height": 800000, "color": "rgba(255,255,255,1)"}, {"hoverLabel": "Marli", "pos": {"lat": 12.218023, "lng": -61.642246}, "height": 200000, "color": "rgba(255,255,255,1)"}, {"hoverLabel": "York", "pos": {"lat": -31.8935, "lng": 116.76818}, "height": 200000, "color": "rgba(255,255,255,1)"}, {"hoverLabel": "Salima", "pos": {"lat": -13.779553, "lng": 34.45864}, "height": 200000, "color": "rgba(255,255,255,1)"}, {"hoverLabel": "Bolzano", "pos": {"lat": 46.498295, "lng": 11.354758}, "height": 1800000, "color": "rgba(255,255,255,1)"}, {"hoverLabel": "Kuching", "pos": {"lat": 1.6076812, "lng": 110.37854}, "height": 800000, "color": "rgba(255,255,255,1)"}, {"hoverLabel": "Gold Coast City", "pos": {"lat": -28.016666, "lng": 153.4}, "height": 2000000, "color": "rgba(255,255,255,1)"}, {"hoverLabel": "Lares", "pos": {"lat": 18.294674, "lng": -66.87712}, "height": 200000, "color": "rgba(255,255,255,1)"}, {"hoverLabel": "Samac\u00e1", "pos": {"lat": 5.492342, "lng": -73.48616}, "height": 200000, "color": "rgba(255,255,255,1)"}, {"hoverLabel": "Dowa", "pos": {"lat": -13.651468, "lng": 33.935974}, "height": 200000, "color": "rgba(255,255,255,1)"}, {"hoverLabel": "Ipatinga MG", "pos": {"lat": -19.470762, "lng": -42.54801}, "height": 1200000, "color": "rgba(255,255,255,1)"}, {"hoverLabel": "Dedza", "pos": {"lat": -14.381661, "lng": 34.325485}, "height": 200000, "color": "rgba(255,255,255,1)"}, {"hoverLabel": "Itapipoca CE", "pos": {"lat": -3.499706, "lng": -39.583923}, "height": 200000, "color": "rgba(255,255,255,1)"}, {"hoverLabel": "Salamanca", "pos": {"lat": -31.782494, "lng": -70.96071}, "height": 400000, "color": "rgba(255,255,255,1)"}, {"hoverLabel": "Kastav", "pos": {"lat": 45.37158, "lng": 14.350424}, "height": 200000, "color": "rgba(255,255,255,1)"}, {"hoverLabel": "Mulanje", "pos": {"lat": -16.025234, "lng": 35.508312}, "height": 200000, "color": "rgba(255,255,255,1)"}, {"hoverLabel": "Pedro Leopoldo MG", "pos": {"lat": -19.6214, "lng": -44.04738}, "height": 200000, "color": "rgba(255,255,255,1)"}, {"hoverLabel": "Slawi", "pos": {"lat": -6.9830537, "lng": 109.136505}, "height": 200000, "color": "rgba(255,255,255,1)"}, {"hoverLabel": "Benidorm", "pos": {"lat": 38.541058, "lng": -0.1224937}, "height": 2400000, "color": "rgba(255,255,255,1)"}, {"hoverLabel": "Calkini", "pos": {"lat": 20.370855, "lng": -90.05047}, "height": 1800000, "color": "rgba(255,255,255,1)"}, {"hoverLabel": "Balassagyarmat", "pos": {"lat": 48.071186, "lng": 19.293715}, "height": 200000, "color": "rgba(255,255,255,1)"}, {"hoverLabel": "Purranque", "pos": {"lat": -40.908432, "lng": -73.16611}, "height": 200000, "color": "rgba(255,255,255,1)"}, {"hoverLabel": "San Benito", "pos": {"lat": 16.918139, "lng": -89.920654}, "height": 200000, "color": "rgba(255,255,255,1)"}, {"hoverLabel": "Haidari", "pos": {"lat": 38.011944, "lng": 23.65399}, "height": 200000, "color": "rgba(255,255,255,1)"}, {"hoverLabel": "Deizisau", "pos": {"lat": 48.71194, "lng": 9.387075}, "height": 200000, "color": "rgba(255,255,255,1)"}, {"hoverLabel": "Itai\u00f3polis SC", "pos": {"lat": -26.339495, "lng": -49.90607}, "height": 200000, "color": "rgba(255,255,255,1)"}, {"hoverLabel": "Abakaliki", "pos": {"lat": 6.323061, "lng": 8.112012}, "height": 200000, "color": "rgba(255,255,255,1)"}, {"hoverLabel": "La Calera", "pos": {"lat": -32.787342, "lng": -71.20732}, "height": 600000, "color": "rgba(255,255,255,1)"}, {"hoverLabel": "Angles", "pos": {"lat": 46.40849, "lng": -1.403055}, "height": 200000, "color": "rgba(255,255,255,1)"}, {"hoverLabel": "Vladikavkaz", "pos": {"lat": 43.025234, "lng": 44.665977}, "height": 1800000, "color": "rgba(255,255,255,1)"}, {"hoverLabel": "Puerto Williams", "pos": {"lat": -54.93521, "lng": -67.60585}, "height": 200000, "color": "rgba(255,255,255,1)"}, {"hoverLabel": "S\u00e3o Francisco de Itabapoana RJ", "pos": {"lat": -21.470684, "lng": -41.109528}, "height": 200000, "color": "rgba(255,255,255,1)"}, {"hoverLabel": "Puerto Varas", "pos": {"lat": -41.3167, "lng": -72.9833}, "height": 600000, "color": "rgba(255,255,255,1)"}, {"hoverLabel": "Berastagi", "pos": {"lat": 3.185291, "lng": 98.50491}, "height": 200000, "color": "rgba(255,255,255,1)"}, {"hoverLabel": "Sesquil\u00e9", "pos": {"lat": 5.045268, "lng": -73.79693}, "height": 200000, "color": "rgba(255,255,255,1)"}, {"hoverLabel": "Victoria", "pos": {"lat": -38.232655, "lng": -72.35151}, "height": 600000, "color": "rgba(255,255,255,1)"}, {"hoverLabel": "Nanjing", "pos": {"lat": 32.060253, "lng": 118.796875}, "height": 200000, "color": "rgba(255,255,255,1)"}, {"hoverLabel": "Lorient", "pos": {"lat": 47.748253, "lng": -3.370245}, "height": 200000, "color": "rgba(255,255,255,1)"}, {"hoverLabel": "Unquillo", "pos": {"lat": -31.23413, "lng": -64.31671}, "height": 400000, "color": "rgba(255,255,255,1)"}, {"hoverLabel": "Fuzhou", "pos": {"lat": 26.074478, "lng": 119.29648}, "height": 200000, "color": "rgba(255,255,255,1)"}, {"hoverLabel": "Paine", "pos": {"lat": -33.812565, "lng": -70.737595}, "height": 600000, "color": "rgba(255,255,255,1)"}, {"hoverLabel": "Bahia de Caraquez", "pos": {"lat": -0.6186619, "lng": -80.42737}, "height": 200000, "color": "rgba(255,255,255,1)"}, {"hoverLabel": "Sapucaia do Sul RS", "pos": {"lat": -29.822655, "lng": -51.147907}, "height": 200000, "color": "rgba(255,255,255,1)"}, {"hoverLabel": "Changsha", "pos": {"lat": 28.22778, "lng": 112.93886}, "height": 200000, "color": "rgba(255,255,255,1)"}, {"hoverLabel": "Cipolletti", "pos": {"lat": -38.93877, "lng": -67.99549}, "height": 1000000, "color": "rgba(255,255,255,1)"}, {"hoverLabel": "Giza", "pos": {"lat": 30.013056, "lng": 31.208853}, "height": 200000, "color": "rgba(255,255,255,1)"}, {"hoverLabel": "Rawabi", "pos": {"lat": 32.01, "lng": 35.185}, "height": 200000, "color": "rgba(255,255,255,1)"}, {"hoverLabel": "Planaltina GO", "pos": {"lat": -15.4525, "lng": -47.609318}, "height": 200000, "color": "rgba(255,255,255,1)"}, {"hoverLabel": "Ancona", "pos": {"lat": 43.61583, "lng": 13.518915}, "height": 1200000, "color": "rgba(255,255,255,1)"}, {"hoverLabel": "Quell\u00f3n", "pos": {"lat": -43.116932, "lng": -73.613884}, "height": 600000, "color": "rgba(255,255,255,1)"}, {"hoverLabel": "Priego de C\u00f3rdoba", "pos": {"lat": 37.43779, "lng": -4.1987433}, "height": 200000, "color": "rgba(255,255,255,1)"}, {"hoverLabel": "Llerena", "pos": {"lat": 38.237686, "lng": -6.0163145}, "height": 200000, "color": "rgba(255,255,255,1)"}, {"hoverLabel": "Canet de Mar", "pos": {"lat": 41.589157, "lng": 2.5802026}, "height": 200000, "color": "rgba(255,255,255,1)"}, {"hoverLabel": "Aparecida do Taboado MS", "pos": {"lat": -20.08625, "lng": -51.101826}, "height": 200000, "color": "rgba(255,255,255,1)"}, {"hoverLabel": "G\u00fcines", "pos": {"lat": 22.84298, "lng": -82.02437}, "height": 200000, "color": "rgba(255,255,255,1)"}, {"hoverLabel": "Puerto Plata", "pos": {"lat": 19.78077, "lng": -70.68711}, "height": 1800000, "color": "rgba(255,255,255,1)"}, {"hoverLabel": "La Ligua", "pos": {"lat": -32.4499, "lng": -71.2326}, "height": 600000, "color": "rgba(255,255,255,1)"}, {"hoverLabel": "Guadalupe", "pos": {"lat": 6.246049, "lng": -73.41874}, "height": 200000, "color": "rgba(255,255,255,1)"}, {"hoverLabel": "Andes", "pos": {"lat": 5.656421, "lng": -75.879654}, "height": 200000, "color": "rgba(255,255,255,1)"}, {"hoverLabel": "Aabenraa", "pos": {"lat": 55.04085, "lng": 9.415159}, "height": 200000, "color": "rgba(255,255,255,1)"}, {"hoverLabel": "Sons\u00f3n", "pos": {"lat": 5.712002, "lng": -75.3098}, "height": 200000, "color": "rgba(255,255,255,1)"}, {"hoverLabel": "Barahona", "pos": {"lat": 18.21208, "lng": -71.10241}, "height": 1800000, "color": "rgba(255,255,255,1)"}, {"hoverLabel": "Sepaku", "pos": {"lat": -0.907695, "lng": 116.83269}, "height": 200000, "color": "rgba(255,255,255,1)"}, {"hoverLabel": "Uchoa SP", "pos": {"lat": -20.951864, "lng": -49.173374}, "height": 200000, "color": "rgba(255,255,255,1)"}, {"hoverLabel": "Col\u00f3n", "pos": {"lat": 1.190067, "lng": -76.97286}, "height": 200000, "color": "rgba(255,255,255,1)"}, {"hoverLabel": "Belo Vale MG", "pos": {"lat": -20.409273, "lng": -44.025715}, "height": 200000, "color": "rgba(255,255,255,1)"}, {"hoverLabel": "Algeciras", "pos": {"lat": 2.523286, "lng": -75.31562}, "height": 200000, "color": "rgba(255,255,255,1)"}, {"hoverLabel": "San Jos\u00e9 Del Fragua", "pos": {"lat": 1.3315742, "lng": -75.97331}, "height": 200000, "color": "rgba(255,255,255,1)"}, {"hoverLabel": "Cabrican", "pos": {"lat": 15.0738945, "lng": -91.64874}, "height": 200000, "color": "rgba(255,255,255,1)"}, {"hoverLabel": "Crici\u00fama SC", "pos": {"lat": -28.67277, "lng": -49.37338}, "height": 1400000, "color": "rgba(255,255,255,1)"}, {"hoverLabel": "Chimichagua", "pos": {"lat": 9.258032, "lng": -73.81424}, "height": 200000, "color": "rgba(255,255,255,1)"}, {"hoverLabel": "Biso", "pos": {"lat": 1.7606015, "lng": 31.418474}, "height": 200000, "color": "rgba(255,255,255,1)"}, {"hoverLabel": "Byblos", "pos": {"lat": 34.123, "lng": 35.651928}, "height": 200000, "color": "rgba(255,255,255,1)"}, {"hoverLabel": "Ventaquemada", "pos": {"lat": 5.372167, "lng": -73.522675}, "height": 200000, "color": "rgba(255,255,255,1)"}, {"hoverLabel": "Aipe", "pos": {"lat": 3.222104, "lng": -75.23745}, "height": 200000, "color": "rgba(255,255,255,1)"}, {"hoverLabel": "Saint-Aignan-Grandlieu", "pos": {"lat": 47.124134, "lng": -1.630217}, "height": 200000, "color": "rgba(255,255,255,1)"}, {"hoverLabel": "Northampton MA", "pos": {"lat": 42.32509, "lng": -72.641205}, "height": 800000, "color": "rgba(255,255,255,1)"}, {"hoverLabel": "Manzanares", "pos": {"lat": 5.255906, "lng": -75.15389}, "height": 200000, "color": "rgba(255,255,255,1)"}, {"hoverLabel": "Salamander Bay", "pos": {"lat": -32.734703, "lng": 152.10706}, "height": 200000, "color": "rgba(255,255,255,1)"}, {"hoverLabel": "Roxbury NY", "pos": {"lat": 42.300568, "lng": -74.55551}, "height": 200000, "color": "rgba(255,255,255,1)"}, {"hoverLabel": "Varginha MG", "pos": {"lat": -21.556051, "lng": -45.436844}, "height": 1800000, "color": "rgba(255,255,255,1)"}, {"hoverLabel": "Peekskill NY", "pos": {"lat": 41.290092, "lng": -73.92042}, "height": 200000, "color": "rgba(255,255,255,1)"}, {"hoverLabel": "Timi\u0219oara", "pos": {"lat": 45.74887, "lng": 21.20868}, "height": 1600000, "color": "rgba(255,255,255,1)"}, {"hoverLabel": "College Park MD", "pos": {"lat": 38.989697, "lng": -76.93776}, "height": 200000, "color": "rgba(255,255,255,1)"}, {"hoverLabel": "Bochalema", "pos": {"lat": 7.6112313, "lng": -72.648094}, "height": 200000, "color": "rgba(255,255,255,1)"}, {"hoverLabel": "Burlington KS", "pos": {"lat": 38.194466, "lng": -95.74277}, "height": 200000, "color": "rgba(255,255,255,1)"}, {"hoverLabel": "Idaho Springs CO", "pos": {"lat": 39.74249, "lng": -105.51361}, "height": 200000, "color": "rgba(255,255,255,1)"}, {"hoverLabel": "Grand Haven MI", "pos": {"lat": 43.063072, "lng": -86.228386}, "height": 200000, "color": "rgba(255,255,255,1)"}, {"hoverLabel": "Oberlin KS", "pos": {"lat": 39.81834, "lng": -100.5282}, "height": 200000, "color": "rgba(255,255,255,1)"}, {"hoverLabel": "Repatriaci\u00f3n", "pos": {"lat": -25.537666, "lng": -55.990166}, "height": 200000, "color": "rgba(255,255,255,1)"}, {"hoverLabel": "Natalio", "pos": {"lat": -26.756548, "lng": -55.140343}, "height": 200000, "color": "rgba(255,255,255,1)"}, {"hoverLabel": "Hengyang", "pos": {"lat": 26.893158, "lng": 112.57197}, "height": 200000, "color": "rgba(255,255,255,1)"}, {"hoverLabel": "Poligiros", "pos": {"lat": 40.381683, "lng": 23.44267}, "height": 200000, "color": "rgba(255,255,255,1)"}, {"hoverLabel": "Tangar\u00e1 RN", "pos": {"lat": -6.1989646, "lng": -35.801785}, "height": 200000, "color": "rgba(255,255,255,1)"}, {"hoverLabel": "San Carlos", "pos": {"lat": -36.423595, "lng": -71.95792}, "height": 800000, "color": "rgba(255,255,255,1)"}, {"hoverLabel": "Lautaro", "pos": {"lat": -38.50843, "lng": -72.45413}, "height": 200000, "color": "rgba(255,255,255,1)"}, {"hoverLabel": "Palena", "pos": {"lat": -43.6167, "lng": -71.8}, "height": 200000, "color": "rgba(255,255,255,1)"}, {"hoverLabel": "Mendes RJ", "pos": {"lat": -22.525473, "lng": -43.73121}, "height": 200000, "color": "rgba(255,255,255,1)"}, {"hoverLabel": "Sivas", "pos": {"lat": 39.750546, "lng": 37.015022}, "height": 400000, "color": "rgba(255,255,255,1)"}, {"hoverLabel": "Curacaut\u00edn", "pos": {"lat": -38.440426, "lng": -71.88974}, "height": 200000, "color": "rgba(255,255,255,1)"}, {"hoverLabel": "Talcahuano", "pos": {"lat": -36.724785, "lng": -73.11698}, "height": 200000, "color": "rgba(255,255,255,1)"}, {"hoverLabel": "Conflans-Sainte-Honorine", "pos": {"lat": 49.000275, "lng": 2.09178}, "height": 400000, "color": "rgba(255,255,255,1)"}, {"hoverLabel": "Biysk", "pos": {"lat": 52.507275, "lng": 85.1472}, "height": 1600000, "color": "rgba(255,255,255,1)"}, {"hoverLabel": "Donato", "pos": {"lat": 45.52885, "lng": 7.9078193}, "height": 200000, "color": "rgba(255,255,255,1)"}, {"hoverLabel": "Saint-Nicod\u00e8me", "pos": {"lat": 48.34255, "lng": -3.339298}, "height": 200000, "color": "rgba(255,255,255,1)"}, {"hoverLabel": "Saint-Astier", "pos": {"lat": 45.145203, "lng": 0.52778}, "height": 200000, "color": "rgba(255,255,255,1)"}, {"hoverLabel": "Rengo", "pos": {"lat": -34.402378, "lng": -70.86744}, "height": 200000, "color": "rgba(255,255,255,1)"}, {"hoverLabel": "Koum\u00e9", "pos": {"lat": 4.65, "lng": 13.65}, "height": 200000, "color": "rgba(255,255,255,1)"}, {"hoverLabel": "Kingston", "pos": {"lat": 44.23117, "lng": -76.485954}, "height": 800000, "color": "rgba(255,255,255,1)"}, {"hoverLabel": "Sim\u00f5es PI", "pos": {"lat": -7.5915027, "lng": -40.8141}, "height": 200000, "color": "rgba(255,255,255,1)"}, {"hoverLabel": "La Junta", "pos": {"lat": -43.970074, "lng": -72.40069}, "height": 200000, "color": "rgba(255,255,255,1)"}, {"hoverLabel": "Calbuco", "pos": {"lat": -41.772015, "lng": -73.132706}, "height": 200000, "color": "rgba(255,255,255,1)"}, {"hoverLabel": "Am\u00e9rica", "pos": {"lat": -35.489143, "lng": -62.97563}, "height": 600000, "color": "rgba(255,255,255,1)"}, {"hoverLabel": "Ronkonkoma NY", "pos": {"lat": 40.80642, "lng": -73.124146}, "height": 400000, "color": "rgba(255,255,255,1)"}, {"hoverLabel": "Cajazeiras PB", "pos": {"lat": -6.889707, "lng": -38.56122}, "height": 200000, "color": "rgba(255,255,255,1)"}, {"hoverLabel": "Cuparaque MG", "pos": {"lat": -18.969059, "lng": -41.098248}, "height": 200000, "color": "rgba(255,255,255,1)"}, {"hoverLabel": "Barcarena PA", "pos": {"lat": -1.510287, "lng": -48.61383}, "height": 200000, "color": "rgba(255,255,255,1)"}, {"hoverLabel": "Carna\u00edba PE", "pos": {"lat": -7.8044195, "lng": -37.794453}, "height": 200000, "color": "rgba(255,255,255,1)"}, {"hoverLabel": "Ubarana SP", "pos": {"lat": -21.165918, "lng": -49.717278}, "height": 200000, "color": "rgba(255,255,255,1)"}, {"hoverLabel": "Utinga BA", "pos": {"lat": -12.080556, "lng": -41.097294}, "height": 200000, "color": "rgba(255,255,255,1)"}, {"hoverLabel": "Pilar", "pos": {"lat": -31.678162, "lng": -63.878647}, "height": 200000, "color": "rgba(255,255,255,1)"}, {"hoverLabel": "Machagai", "pos": {"lat": -26.926012, "lng": -60.048435}, "height": 200000, "color": "rgba(255,255,255,1)"}, {"hoverLabel": "Arcos MG", "pos": {"lat": -20.291283, "lng": -45.54769}, "height": 200000, "color": "rgba(255,255,255,1)"}, {"hoverLabel": "Embalse", "pos": {"lat": -32.204975, "lng": -64.40089}, "height": 200000, "color": "rgba(255,255,255,1)"}, {"hoverLabel": "Simoca", "pos": {"lat": -27.263035, "lng": -65.35783}, "height": 200000, "color": "rgba(255,255,255,1)"}, {"hoverLabel": "Fabara", "pos": {"lat": 41.17772, "lng": 0.1698182}, "height": 200000, "color": "rgba(255,255,255,1)"}, {"hoverLabel": "Herat", "pos": {"lat": 34.352863, "lng": 62.20403}, "height": 200000, "color": "rgba(255,255,255,1)"}, {"hoverLabel": "Senhor do Bonfim BA", "pos": {"lat": -10.46144, "lng": -40.18677}, "height": 800000, "color": "rgba(255,255,255,1)"}, {"hoverLabel": "Filadelfia", "pos": {"lat": -22.352316, "lng": -60.03751}, "height": 400000, "color": "rgba(255,255,255,1)"}, {"hoverLabel": "Sultanda\u011f\u0131", "pos": {"lat": 38.531635, "lng": 31.229912}, "height": 200000, "color": "rgba(255,255,255,1)"}, {"hoverLabel": "La Colmena", "pos": {"lat": -25.884563, "lng": -56.839546}, "height": 400000, "color": "rgba(255,255,255,1)"}, {"hoverLabel": "Micha\u0142owo", "pos": {"lat": 53.032936, "lng": 23.606218}, "height": 200000, "color": "rgba(255,255,255,1)"}, {"hoverLabel": "Konin", "pos": {"lat": 52.21675, "lng": 18.25323}, "height": 200000, "color": "rgba(255,255,255,1)"}, {"hoverLabel": "San Estanislao", "pos": {"lat": -24.665339, "lng": -56.455193}, "height": 400000, "color": "rgba(255,255,255,1)"}, {"hoverLabel": "Regina", "pos": {"lat": 50.44521, "lng": -104.6189}, "height": 1600000, "color": "rgba(255,255,255,1)"}, {"hoverLabel": "Maskwacis", "pos": {"lat": 52.83443, "lng": -113.447205}, "height": 200000, "color": "rgba(255,255,255,1)"}, {"hoverLabel": "Aberdeen MD", "pos": {"lat": 39.509556, "lng": -76.164116}, "height": 200000, "color": "rgba(255,255,255,1)"}, {"hoverLabel": "Edelira", "pos": {"lat": -26.764235, "lng": -55.278416}, "height": 400000, "color": "rgba(255,255,255,1)"}, {"hoverLabel": "Orihuela", "pos": {"lat": 38.085552, "lng": -0.9480051}, "height": 400000, "color": "rgba(255,255,255,1)"}, {"hoverLabel": "Encarnacion", "pos": {"lat": -27.252293, "lng": -55.913586}, "height": 400000, "color": "rgba(255,255,255,1)"}, {"hoverLabel": "Curuguaty", "pos": {"lat": -24.472433, "lng": -55.696728}, "height": 400000, "color": "rgba(255,255,255,1)"}, {"hoverLabel": "Poteau OK", "pos": {"lat": 35.05371, "lng": -94.62356}, "height": 200000, "color": "rgba(255,255,255,1)"}, {"hoverLabel": "Niter\u00f3i RJ", "pos": {"lat": -22.885897, "lng": -43.115223}, "height": 1600000, "color": "rgba(255,255,255,1)"}, {"hoverLabel": "Xambio\u00e1 TO", "pos": {"lat": -6.414497, "lng": -48.532402}, "height": 200000, "color": "rgba(255,255,255,1)"}, {"hoverLabel": "Sucre", "pos": {"lat": -19.019585, "lng": -65.26196}, "height": 600000, "color": "rgba(255,255,255,1)"}, {"hoverLabel": "Amuda", "pos": {"lat": 37.10057, "lng": 40.93545}, "height": 400000, "color": "rgba(255,255,255,1)"}, {"hoverLabel": "Van Zandt WA", "pos": {"lat": 48.789005, "lng": -122.191826}, "height": 200000, "color": "rgba(255,255,255,1)"}, {"hoverLabel": "Seoul", "pos": {"lat": 37.566536, "lng": 126.97797}, "height": 1600000, "color": "rgba(255,255,255,1)"}, {"hoverLabel": "Many LA", "pos": {"lat": 31.569527, "lng": -93.482925}, "height": 200000, "color": "rgba(255,255,255,1)"}, {"hoverLabel": "Katuet\u00e9", "pos": {"lat": -24.24815, "lng": -54.757683}, "height": 400000, "color": "rgba(255,255,255,1)"}, {"hoverLabel": "It\u00e1", "pos": {"lat": -25.501406, "lng": -57.366604}, "height": 400000, "color": "rgba(255,255,255,1)"}, {"hoverLabel": "Scottsboro AL", "pos": {"lat": 34.651367, "lng": -86.04257}, "height": 200000, "color": "rgba(255,255,255,1)"}, {"hoverLabel": "Rio Pardo de Minas MG", "pos": {"lat": -15.617531, "lng": -42.54384}, "height": 200000, "color": "rgba(255,255,255,1)"}, {"hoverLabel": "Villa R\u00edo Bermejito", "pos": {"lat": -25.640608, "lng": -60.263653}, "height": 400000, "color": "rgba(255,255,255,1)"}, {"hoverLabel": "Dungog", "pos": {"lat": -32.404663, "lng": 151.75241}, "height": 400000, "color": "rgba(255,255,255,1)"}, {"hoverLabel": "Santa B\u00e1rbara", "pos": {"lat": 7.814007, "lng": -71.175156}, "height": 400000, "color": "rgba(255,255,255,1)"}, {"hoverLabel": "Parintins AM", "pos": {"lat": -2.6377761, "lng": -56.729527}, "height": 400000, "color": "rgba(255,255,255,1)"}, {"hoverLabel": "Naranjos", "pos": {"lat": 21.341352, "lng": -97.681946}, "height": 400000, "color": "rgba(255,255,255,1)"}, {"hoverLabel": "Andir\u00e1 PR", "pos": {"lat": -23.047934, "lng": -50.230667}, "height": 400000, "color": "rgba(255,255,255,1)"}, {"hoverLabel": "Whitesburg KY", "pos": {"lat": 37.11843, "lng": -82.82683}, "height": 400000, "color": "rgba(255,255,255,1)"}, {"hoverLabel": "Orsk", "pos": {"lat": 51.214523, "lng": 58.544056}, "height": 1200000, "color": "rgba(255,255,255,1)"}, {"hoverLabel": "Antiguo Cuscatl\u00e1n", "pos": {"lat": 13.673056, "lng": -89.240555}, "height": 400000, "color": "rgba(255,255,255,1)"}, {"hoverLabel": "Prague", "pos": {"lat": 50.07554, "lng": 14.4378}, "height": 11400000, "color": "rgba(255,255,255,1)"}, {"hoverLabel": "Yaound\u00e9", "pos": {"lat": 3.8480325, "lng": 11.502075}, "height": 400000, "color": "rgba(255,255,255,1)"}, {"hoverLabel": "S\u00e3o Jos\u00e9 do Jacu\u00edpe BA", "pos": {"lat": -11.503581, "lng": -40.024345}, "height": 200000, "color": "rgba(255,255,255,1)"}, {"hoverLabel": "Bamenda", "pos": {"lat": 5.9630513, "lng": 10.1591215}, "height": 400000, "color": "rgba(255,255,255,1)"}, {"hoverLabel": "Mazabuka", "pos": {"lat": -15.861252, "lng": 27.749065}, "height": 400000, "color": "rgba(255,255,255,1)"}, {"hoverLabel": "Bigua\u00e7u SC", "pos": {"lat": -27.495575, "lng": -48.65537}, "height": 400000, "color": "rgba(255,255,255,1)"}, {"hoverLabel": "Sangolqui", "pos": {"lat": -0.3301412, "lng": -78.44999}, "height": 400000, "color": "rgba(255,255,255,1)"}, {"hoverLabel": "Johannesburg", "pos": {"lat": -26.204103, "lng": 28.047304}, "height": 10200000, "color": "rgba(255,255,255,1)"}, {"hoverLabel": "Jacaltenango", "pos": {"lat": 15.6654, "lng": -91.71131}, "height": 400000, "color": "rgba(255,255,255,1)"}, {"hoverLabel": "El Talar", "pos": {"lat": -34.472095, "lng": -58.654022}, "height": 200000, "color": "rgba(255,255,255,1)"}, {"hoverLabel": "Villa Giardino", "pos": {"lat": -31.052986, "lng": -64.49913}, "height": 200000, "color": "rgba(255,255,255,1)"}, {"hoverLabel": "Siguatepeque", "pos": {"lat": 14.596387, "lng": -87.84024}, "height": 400000, "color": "rgba(255,255,255,1)"}, {"hoverLabel": "Lekki", "pos": {"lat": 6.469842, "lng": 3.5851717}, "height": 400000, "color": "rgba(255,255,255,1)"}, {"hoverLabel": "Noventa Padovana", "pos": {"lat": 45.416023, "lng": 11.954011}, "height": 3000000, "color": "rgba(255,255,255,1)"}, {"hoverLabel": "D\u00fcsseldorf", "pos": {"lat": 51.22774, "lng": 6.7734556}, "height": 3200000, "color": "rgba(255,255,255,1)"}, {"hoverLabel": "Lambari MG", "pos": {"lat": -21.96787, "lng": -45.348473}, "height": 400000, "color": "rgba(255,255,255,1)"}, {"hoverLabel": "Bu\u00edque PE", "pos": {"lat": -8.621093, "lng": -37.15725}, "height": 200000, "color": "rgba(255,255,255,1)"}, {"hoverLabel": "Crate\u00fas CE", "pos": {"lat": -5.178204, "lng": -40.66955}, "height": 200000, "color": "rgba(255,255,255,1)"}, {"hoverLabel": "Guarulhos SP", "pos": {"lat": -23.454315, "lng": -46.533653}, "height": 1400000, "color": "rgba(255,255,255,1)"}, {"hoverLabel": "Rio das Ostras RJ", "pos": {"lat": -22.527262, "lng": -41.946377}, "height": 400000, "color": "rgba(255,255,255,1)"}, {"hoverLabel": "Winchester VA", "pos": {"lat": 39.18566, "lng": -78.16334}, "height": 400000, "color": "rgba(255,255,255,1)"}, {"hoverLabel": "Lexington TN", "pos": {"lat": 35.6509, "lng": -88.39338}, "height": 400000, "color": "rgba(255,255,255,1)"}, {"hoverLabel": "Itapuranga GO", "pos": {"lat": -15.554475, "lng": -49.941727}, "height": 400000, "color": "rgba(255,255,255,1)"}, {"hoverLabel": "Qingdao", "pos": {"lat": 36.06711, "lng": 120.38261}, "height": 600000, "color": "rgba(255,255,255,1)"}, {"hoverLabel": "Alcala de Henares", "pos": {"lat": 40.48198, "lng": -3.363542}, "height": 600000, "color": "rgba(255,255,255,1)"}, {"hoverLabel": "Tacna", "pos": {"lat": -18.006567, "lng": -70.24628}, "height": 1400000, "color": "rgba(255,255,255,1)"}, {"hoverLabel": "Punto Fijo", "pos": {"lat": 11.711511, "lng": -70.181305}, "height": 600000, "color": "rgba(255,255,255,1)"}, {"hoverLabel": "Chiquimula", "pos": {"lat": 14.79249, "lng": -89.545044}, "height": 1400000, "color": "rgba(255,255,255,1)"}, {"hoverLabel": "Cruz das Almas BA", "pos": {"lat": -12.673555, "lng": -39.101685}, "height": 600000, "color": "rgba(255,255,255,1)"}, {"hoverLabel": "Barra Velha SC", "pos": {"lat": -26.633144, "lng": -48.68466}, "height": 600000, "color": "rgba(255,255,255,1)"}, {"hoverLabel": "Frankfurt am Main", "pos": {"lat": 50.110924, "lng": 8.682127}, "height": 4200000, "color": "rgba(255,255,255,1)"}, {"hoverLabel": "Ramallah", "pos": {"lat": 31.903765, "lng": 35.20342}, "height": 3800000, "color": "rgba(255,255,255,1)"}, {"hoverLabel": "Mojokerto", "pos": {"lat": -7.4704747, "lng": 112.44013}, "height": 400000, "color": "rgba(255,255,255,1)"}, {"hoverLabel": "Wonosobo", "pos": {"lat": -7.3684993, "lng": 109.89841}, "height": 400000, "color": "rgba(255,255,255,1)"}, {"hoverLabel": "Bisbee AZ", "pos": {"lat": 31.448154, "lng": -109.928406}, "height": 600000, "color": "rgba(255,255,255,1)"}, {"hoverLabel": "Osorno", "pos": {"lat": -40.57619, "lng": -73.114944}, "height": 2200000, "color": "rgba(255,255,255,1)"}, {"hoverLabel": "Calvia", "pos": {"lat": 39.562634, "lng": 2.5197933}, "height": 400000, "color": "rgba(255,255,255,1)"}, {"hoverLabel": "Luque", "pos": {"lat": -25.241503, "lng": -57.485355}, "height": 600000, "color": "rgba(255,255,255,1)"}, {"hoverLabel": "Probolinggo", "pos": {"lat": -7.7764225, "lng": 113.20371}, "height": 400000, "color": "rgba(255,255,255,1)"}, {"hoverLabel": "Sidoarjo", "pos": {"lat": -7.449772, "lng": 112.701546}, "height": 400000, "color": "rgba(255,255,255,1)"}, {"hoverLabel": "Gobernador Virasoro", "pos": {"lat": -28.054342, "lng": -56.01399}, "height": 200000, "color": "rgba(255,255,255,1)"}, {"hoverLabel": "Augusta GA", "pos": {"lat": 33.4735, "lng": -82.01051}, "height": 800000, "color": "rgba(255,255,255,1)"}, {"hoverLabel": "Drogheda", "pos": {"lat": 53.717857, "lng": -6.3560987}, "height": 400000, "color": "rgba(255,255,255,1)"}, {"hoverLabel": "Cadereyta de Montes", "pos": {"lat": 20.690403, "lng": -99.82086}, "height": 400000, "color": "rgba(255,255,255,1)"}, {"hoverLabel": "Ch\u00eda", "pos": {"lat": 4.864758, "lng": -74.05092}, "height": 400000, "color": "rgba(255,255,255,1)"}, {"hoverLabel": "Zinacant\u00e1n", "pos": {"lat": 16.75948, "lng": -92.721634}, "height": 400000, "color": "rgba(255,255,255,1)"}, {"hoverLabel": "San Antonio TX", "pos": {"lat": 29.424122, "lng": -98.49363}, "height": 3000000, "color": "rgba(255,255,255,1)"}, {"hoverLabel": "Jagodina", "pos": {"lat": 43.97773, "lng": 21.257273}, "height": 600000, "color": "rgba(255,255,255,1)"}, {"hoverLabel": "Chadron NE", "pos": {"lat": 42.82942, "lng": -102.99991}, "height": 400000, "color": "rgba(255,255,255,1)"}, {"hoverLabel": "Los \u00c1ngeles", "pos": {"lat": -37.462917, "lng": -72.36122}, "height": 2600000, "color": "rgba(255,255,255,1)"}, {"hoverLabel": "Cris\u00f3polis BA", "pos": {"lat": -11.511545, "lng": -38.14994}, "height": 200000, "color": "rgba(255,255,255,1)"}, {"hoverLabel": "S\u00e3o Jo\u00e3o do Pol\u00easine RS", "pos": {"lat": -29.616179, "lng": -53.446213}, "height": 200000, "color": "rgba(255,255,255,1)"}, {"hoverLabel": "Zamora", "pos": {"lat": -4.062094, "lng": -78.94862}, "height": 600000, "color": "rgba(255,255,255,1)"}, {"hoverLabel": "Monte Mor SP", "pos": {"lat": -22.945536, "lng": -47.312622}, "height": 200000, "color": "rgba(255,255,255,1)"}, {"hoverLabel": "Kingstown", "pos": {"lat": 13.160025, "lng": -61.224815}, "height": 2600000, "color": "rgba(255,255,255,1)"}, {"hoverLabel": "Zafra", "pos": {"lat": 38.42253, "lng": -6.4157224}, "height": 600000, "color": "rgba(255,255,255,1)"}, {"hoverLabel": "Lower Hutt", "pos": {"lat": -41.209164, "lng": 174.90805}, "height": 600000, "color": "rgba(255,255,255,1)"}, {"hoverLabel": "Woodbridge VA", "pos": {"lat": 38.658173, "lng": -77.2497}, "height": 600000, "color": "rgba(255,255,255,1)"}, {"hoverLabel": "Nuevo Laredo", "pos": {"lat": 27.477936, "lng": -99.549576}, "height": 600000, "color": "rgba(255,255,255,1)"}, {"hoverLabel": "General Pico", "pos": {"lat": -35.659325, "lng": -63.75779}, "height": 600000, "color": "rgba(255,255,255,1)"}, {"hoverLabel": "Paso de los Libres", "pos": {"lat": -29.71371, "lng": -57.08556}, "height": 600000, "color": "rgba(255,255,255,1)"}, {"hoverLabel": "Pehuaj\u00f3", "pos": {"lat": -35.810715, "lng": -61.898785}, "height": 600000, "color": "rgba(255,255,255,1)"}, {"hoverLabel": "La Plata", "pos": {"lat": 2.389011, "lng": -75.89425}, "height": 600000, "color": "rgba(255,255,255,1)"}, {"hoverLabel": "Mitrovica", "pos": {"lat": 42.890755, "lng": 20.86598}, "height": 600000, "color": "rgba(255,255,255,1)"}, {"hoverLabel": "Kempsey", "pos": {"lat": -31.080061, "lng": 152.8416}, "height": 200000, "color": "rgba(255,255,255,1)"}, {"hoverLabel": "Viedma", "pos": {"lat": -40.81191, "lng": -62.996204}, "height": 1000000, "color": "rgba(255,255,255,1)"}, {"hoverLabel": "Dodoma", "pos": {"lat": -6.162959, "lng": 35.751606}, "height": 600000, "color": "rgba(255,255,255,1)"}, {"hoverLabel": "S\u00e3o Miguel do Guapor\u00e9 RO", "pos": {"lat": -11.693908, "lng": -62.71451}, "height": 200000, "color": "rgba(255,255,255,1)"}, {"hoverLabel": "Bridgetown", "pos": {"lat": 13.097756, "lng": -59.615376}, "height": 2000000, "color": "rgba(255,255,255,1)"}, {"hoverLabel": "Nova Esperan\u00e7a PR", "pos": {"lat": -23.195423, "lng": -52.202152}, "height": 200000, "color": "rgba(255,255,255,1)"}, {"hoverLabel": "Arribe\u00f1os", "pos": {"lat": -34.208855, "lng": -61.35573}, "height": 200000, "color": "rgba(255,255,255,1)"}, {"hoverLabel": "La Tuque", "pos": {"lat": 47.438362, "lng": -72.783936}, "height": 200000, "color": "rgba(255,255,255,1)"}, {"hoverLabel": "Herentals", "pos": {"lat": 51.176853, "lng": 4.8355947}, "height": 600000, "color": "rgba(255,255,255,1)"}, {"hoverLabel": "Port Louis", "pos": {"lat": -20.16089, "lng": 57.50122}, "height": 2000000, "color": "rgba(255,255,255,1)"}, {"hoverLabel": "Dongguan", "pos": {"lat": 23.020674, "lng": 113.7518}, "height": 600000, "color": "rgba(255,255,255,1)"}, {"hoverLabel": "Curitibanos SC", "pos": {"lat": -27.282854, "lng": -50.582104}, "height": 600000, "color": "rgba(255,255,255,1)"}, {"hoverLabel": "Tepic", "pos": {"lat": 21.504166, "lng": -104.89459}, "height": 1400000, "color": "rgba(255,255,255,1)"}, {"hoverLabel": "Lewisburg PA", "pos": {"lat": 40.96453, "lng": -76.88441}, "height": 600000, "color": "rgba(255,255,255,1)"}, {"hoverLabel": "Freetown", "pos": {"lat": 8.465676, "lng": -13.231723}, "height": 1800000, "color": "rgba(255,255,255,1)"}, {"hoverLabel": "Mercaderes", "pos": {"lat": 1.795801, "lng": -77.1634}, "height": 200000, "color": "rgba(255,255,255,1)"}, {"hoverLabel": "Ljubljana", "pos": {"lat": 46.056946, "lng": 14.505752}, "height": 5800000, "color": "rgba(255,255,255,1)"}, {"hoverLabel": "Tucum\u00e3 PA", "pos": {"lat": -6.7471795, "lng": -51.163036}, "height": 1200000, "color": "rgba(255,255,255,1)"}, {"hoverLabel": "Batu", "pos": {"lat": -7.8830647, "lng": 112.53345}, "height": 600000, "color": "rgba(255,255,255,1)"}, {"hoverLabel": "Sterlitamak", "pos": {"lat": 53.655434, "lng": 55.943893}, "height": 200000, "color": "rgba(255,255,255,1)"}, {"hoverLabel": "Saskatoon", "pos": {"lat": 52.133213, "lng": -106.670044}, "height": 1800000, "color": "rgba(255,255,255,1)"}, {"hoverLabel": "Conakry", "pos": {"lat": 9.641186, "lng": -13.578402}, "height": 1200000, "color": "rgba(255,255,255,1)"}, {"hoverLabel": "Puno", "pos": {"lat": -15.840221, "lng": -70.02188}, "height": 1200000, "color": "rgba(255,255,255,1)"}, {"hoverLabel": "Philipsburg", "pos": {"lat": 18.029583, "lng": -63.04714}, "height": 1600000, "color": "rgba(255,255,255,1)"}, {"hoverLabel": "Doncaster", "pos": {"lat": 53.52282, "lng": -1.128462}, "height": 1400000, "color": "rgba(255,255,255,1)"}, {"hoverLabel": "Oakland CA", "pos": {"lat": 37.804363, "lng": -122.27111}, "height": 1600000, "color": "rgba(255,255,255,1)"}, {"hoverLabel": "Santa Cruz do Rio Pardo SP", "pos": {"lat": -22.895176, "lng": -49.62224}, "height": 600000, "color": "rgba(255,255,255,1)"}, {"hoverLabel": "Oruro", "pos": {"lat": -17.964678, "lng": -67.10603}, "height": 1600000, "color": "rgba(255,255,255,1)"}, {"hoverLabel": "Baltimore MD", "pos": {"lat": 39.290386, "lng": -76.61219}, "height": 4600000, "color": "rgba(255,255,255,1)"}, {"hoverLabel": "Edmonton", "pos": {"lat": 53.544388, "lng": -113.49093}, "height": 3800000, "color": "rgba(255,255,255,1)"}, {"hoverLabel": "Antalya", "pos": {"lat": 36.896893, "lng": 30.713324}, "height": 1600000, "color": "rgba(255,255,255,1)"}, {"hoverLabel": "Douala", "pos": {"lat": 4.0510564, "lng": 9.767869}, "height": 600000, "color": "rgba(255,255,255,1)"}, {"hoverLabel": "Domingos Martins ES", "pos": {"lat": -20.360798, "lng": -40.65981}, "height": 600000, "color": "rgba(255,255,255,1)"}, {"hoverLabel": "Nil\u00f3polis RJ", "pos": {"lat": -22.809849, "lng": -43.41939}, "height": 600000, "color": "rgba(255,255,255,1)"}, {"hoverLabel": "Serra ES", "pos": {"lat": -20.121523, "lng": -40.30779}, "height": 600000, "color": "rgba(255,255,255,1)"}, {"hoverLabel": "Karlsruhe", "pos": {"lat": 49.00689, "lng": 8.403653}, "height": 1400000, "color": "rgba(255,255,255,1)"}, {"hoverLabel": "Nelspruit", "pos": {"lat": -25.475298, "lng": 30.969416}, "height": 1200000, "color": "rgba(255,255,255,1)"}, {"hoverLabel": "Santa Rosa CA", "pos": {"lat": 38.44043, "lng": -122.71406}, "height": 1400000, "color": "rgba(255,255,255,1)"}, {"hoverLabel": "S\u00e3o Jos\u00e9 dos Quatro Marcos MT", "pos": {"lat": -15.628012, "lng": -58.177727}, "height": 600000, "color": "rgba(255,255,255,1)"}, {"hoverLabel": "Paranagu\u00e1 PR", "pos": {"lat": -25.516573, "lng": -48.523}, "height": 600000, "color": "rgba(255,255,255,1)"}, {"hoverLabel": "Great Yarmouth", "pos": {"lat": 52.598232, "lng": 1.728047}, "height": 800000, "color": "rgba(255,255,255,1)"}, {"hoverLabel": "Santo Andr\u00e9 SP", "pos": {"lat": -23.674223, "lng": -46.543602}, "height": 1200000, "color": "rgba(255,255,255,1)"}, {"hoverLabel": "Volta Redonda RJ", "pos": {"lat": -22.50776, "lng": -44.09473}, "height": 1200000, "color": "rgba(255,255,255,1)"}, {"hoverLabel": "Rio Grande RS", "pos": {"lat": -32.035385, "lng": -52.107643}, "height": 1400000, "color": "rgba(255,255,255,1)"}, {"hoverLabel": "Chalco de D\u00edaz Covarrubias", "pos": {"lat": 19.26244, "lng": -98.89694}, "height": 200000, "color": "rgba(255,255,255,1)"}, {"hoverLabel": "Ouagadougou", "pos": {"lat": 12.371428, "lng": -1.5196604}, "height": 1200000, "color": "rgba(255,255,255,1)"}, {"hoverLabel": "Guanambi BA", "pos": {"lat": -14.219338, "lng": -42.77969}, "height": 800000, "color": "rgba(255,255,255,1)"}, {"hoverLabel": "Providence RI", "pos": {"lat": 41.82399, "lng": -71.412834}, "height": 3400000, "color": "rgba(255,255,255,1)"}, {"hoverLabel": "Jacksonville FL", "pos": {"lat": 30.332184, "lng": -81.65565}, "height": 2000000, "color": "rgba(255,255,255,1)"}, {"hoverLabel": "Subang Jaya", "pos": {"lat": 3.0567334, "lng": 101.58512}, "height": 200000, "color": "rgba(255,255,255,1)"}, {"hoverLabel": "Oca\u00f1a", "pos": {"lat": 8.25205, "lng": -73.35322}, "height": 800000, "color": "rgba(255,255,255,1)"}, {"hoverLabel": "Toru\u0144", "pos": {"lat": 53.01379, "lng": 18.598444}, "height": 800000, "color": "rgba(255,255,255,1)"}, {"hoverLabel": "Murcia", "pos": {"lat": 37.99224, "lng": -1.1306545}, "height": 3200000, "color": "rgba(255,255,255,1)"}, {"hoverLabel": "Kangar", "pos": {"lat": 6.440633, "lng": 100.19837}, "height": 200000, "color": "rgba(255,255,255,1)"}, {"hoverLabel": "S\u00e3o Jo\u00e3o da Boa Vista SP", "pos": {"lat": -21.971231, "lng": -46.7948}, "height": 800000, "color": "rgba(255,255,255,1)"}, {"hoverLabel": "Linz", "pos": {"lat": 48.30694, "lng": 14.28583}, "height": 800000, "color": "rgba(255,255,255,1)"}, {"hoverLabel": "Villa Gesell", "pos": {"lat": -37.259895, "lng": -56.97142}, "height": 1200000, "color": "rgba(255,255,255,1)"}, {"hoverLabel": "Salgueiro PE", "pos": {"lat": -8.072507, "lng": -39.12681}, "height": 1200000, "color": "rgba(255,255,255,1)"}, {"hoverLabel": "Machala", "pos": {"lat": -3.2581112, "lng": -79.95539}, "height": 1200000, "color": "rgba(255,255,255,1)"}, {"hoverLabel": "Port Moresby", "pos": {"lat": -9.478012, "lng": 147.15065}, "height": 800000, "color": "rgba(255,255,255,1)"}, {"hoverLabel": "Rancagua", "pos": {"lat": -34.17013, "lng": -70.74062}, "height": 1000000, "color": "rgba(255,255,255,1)"}, {"hoverLabel": "Monroe LA", "pos": {"lat": 32.50931, "lng": -92.1193}, "height": 800000, "color": "rgba(255,255,255,1)"}, {"hoverLabel": "Dover NH", "pos": {"lat": 43.19786, "lng": -70.87367}, "height": 800000, "color": "rgba(255,255,255,1)"}, {"hoverLabel": "Nova Friburgo RJ", "pos": {"lat": -22.288727, "lng": -42.53408}, "height": 1000000, "color": "rgba(255,255,255,1)"}, {"hoverLabel": "Bristol", "pos": {"lat": 51.454514, "lng": -2.58791}, "height": 2400000, "color": "rgba(255,255,255,1)"}, {"hoverLabel": "Cachoeiro de Itapemirim ES", "pos": {"lat": -20.846704, "lng": -41.12022}, "height": 1000000, "color": "rgba(255,255,255,1)"}, {"hoverLabel": "Astana", "pos": {"lat": 51.160522, "lng": 71.47035}, "height": 800000, "color": "rgba(255,255,255,1)"}, {"hoverLabel": "San Jos\u00e9 del Guaviare", "pos": {"lat": 2.568549, "lng": -72.64172}, "height": 800000, "color": "rgba(255,255,255,1)"}, {"hoverLabel": "Dian\u00f3polis TO", "pos": {"lat": -11.624436, "lng": -46.820206}, "height": 200000, "color": "rgba(255,255,255,1)"}, {"hoverLabel": "Marechal C\u00e2ndido Rondon PR", "pos": {"lat": -24.556873, "lng": -54.05679}, "height": 800000, "color": "rgba(255,255,255,1)"}, {"hoverLabel": "Kerrville TX", "pos": {"lat": 30.047434, "lng": -99.14032}, "height": 1000000, "color": "rgba(255,255,255,1)"}, {"hoverLabel": "Corfu", "pos": {"lat": 39.624985, "lng": 19.922346}, "height": 2200000, "color": "rgba(255,255,255,1)"}, {"hoverLabel": "Valdez AK", "pos": {"lat": 61.130833, "lng": -146.34833}, "height": 600000, "color": "rgba(255,255,255,1)"}, {"hoverLabel": "Jardim do Serid\u00f3 RN", "pos": {"lat": -6.580877, "lng": -36.773903}, "height": 200000, "color": "rgba(255,255,255,1)"}, {"hoverLabel": "Meru", "pos": {"lat": 0.0514721, "lng": 37.645603}, "height": 800000, "color": "rgba(255,255,255,1)"}, {"hoverLabel": "Riverside CA", "pos": {"lat": 33.95335, "lng": -117.39616}, "height": 1000000, "color": "rgba(255,255,255,1)"}, {"hoverLabel": "Caldas Novas GO", "pos": {"lat": -17.744518, "lng": -48.625027}, "height": 1000000, "color": "rgba(255,255,255,1)"}, {"hoverLabel": "Tulungagung", "pos": {"lat": -8.091221, "lng": 111.96417}, "height": 1000000, "color": "rgba(255,255,255,1)"}, {"hoverLabel": "Bojonegoro", "pos": {"lat": -7.1524787, "lng": 111.88693}, "height": 800000, "color": "rgba(255,255,255,1)"}, {"hoverLabel": "An\u00e1polis GO", "pos": {"lat": -16.328547, "lng": -48.953403}, "height": 1200000, "color": "rgba(255,255,255,1)"}, {"hoverLabel": "Johnson City TN", "pos": {"lat": 36.31344, "lng": -82.35347}, "height": 1000000, "color": "rgba(255,255,255,1)"}, {"hoverLabel": "Gouyave", "pos": {"lat": 12.169174, "lng": -61.726143}, "height": 200000, "color": "rgba(255,255,255,1)"}, {"hoverLabel": "Engcobo", "pos": {"lat": -31.672754, "lng": 27.983475}, "height": 200000, "color": "rgba(255,255,255,1)"}, {"hoverLabel": "Picos PI", "pos": {"lat": -7.077616, "lng": -41.467373}, "height": 1200000, "color": "rgba(255,255,255,1)"}, {"hoverLabel": "Gros Islet", "pos": {"lat": 14.0843725, "lng": -60.945717}, "height": 800000, "color": "rgba(255,255,255,1)"}, {"hoverLabel": "Azogues", "pos": {"lat": -2.740947, "lng": -78.84882}, "height": 800000, "color": "rgba(255,255,255,1)"}, {"hoverLabel": "Tinos", "pos": {"lat": 37.57734, "lng": 25.165201}, "height": 200000, "color": "rgba(255,255,255,1)"}, {"hoverLabel": "Amaliada", "pos": {"lat": 37.79679, "lng": 21.350758}, "height": 200000, "color": "rgba(255,255,255,1)"}, {"hoverLabel": "Ternate City", "pos": {"lat": 0.77142626, "lng": 127.37011}, "height": 1000000, "color": "rgba(255,255,255,1)"}, {"hoverLabel": "King's Lynn", "pos": {"lat": 52.75168, "lng": 0.4022963}, "height": 800000, "color": "rgba(255,255,255,1)"}, {"hoverLabel": "Hamilton", "pos": {"lat": 32.294815, "lng": -64.78137}, "height": 1000000, "color": "rgba(255,255,255,1)"}, {"hoverLabel": "Tabuleiro do Norte CE", "pos": {"lat": -5.2441897, "lng": -38.128593}, "height": 200000, "color": "rgba(255,255,255,1)"}, {"hoverLabel": "Chauvoncourt", "pos": {"lat": 48.900234, "lng": 5.528273}, "height": 200000, "color": "rgba(255,255,255,1)"}, {"hoverLabel": "Porto Seguro BA", "pos": {"lat": -16.444353, "lng": -39.065365}, "height": 1000000, "color": "rgba(255,255,255,1)"}, {"hoverLabel": "Sobral CE", "pos": {"lat": -3.701499, "lng": -40.34969}, "height": 800000, "color": "rgba(255,255,255,1)"}, {"hoverLabel": "Bloemfontein", "pos": {"lat": -29.085215, "lng": 26.159576}, "height": 1200000, "color": "rgba(255,255,255,1)"}, {"hoverLabel": "Noyant-Villages", "pos": {"lat": 47.51262, "lng": 0.1139709}, "height": 200000, "color": "rgba(255,255,255,1)"}, {"hoverLabel": "La Paz", "pos": {"lat": 24.142641, "lng": -110.31275}, "height": 800000, "color": "rgba(255,255,255,1)"}, {"hoverLabel": "G\u00e9rardmer", "pos": {"lat": 48.07008, "lng": 6.877292}, "height": 200000, "color": "rgba(255,255,255,1)"}, {"hoverLabel": "Honfleur", "pos": {"lat": 49.418762, "lng": 0.233262}, "height": 200000, "color": "rgba(255,255,255,1)"}, {"hoverLabel": "Flores", "pos": {"lat": 16.918125, "lng": -89.89261}, "height": 1000000, "color": "rgba(255,255,255,1)"}, {"hoverLabel": "Villebon-sur-Yvette", "pos": {"lat": 48.696404, "lng": 2.236654}, "height": 200000, "color": "rgba(255,255,255,1)"}, {"hoverLabel": "Mina Clavero", "pos": {"lat": -31.72828, "lng": -65.00556}, "height": 200000, "color": "rgba(255,255,255,1)"}, {"hoverLabel": "San Miguel", "pos": {"lat": 13.479292, "lng": -88.17792}, "height": 1000000, "color": "rgba(255,255,255,1)"}, {"hoverLabel": "Port Vila", "pos": {"lat": -17.733252, "lng": 168.32733}, "height": 1000000, "color": "rgba(255,255,255,1)"}, {"hoverLabel": "Arroio Grande RS", "pos": {"lat": -32.233154, "lng": -53.086693}, "height": 400000, "color": "rgba(255,255,255,1)"}, {"hoverLabel": "S\u00e3o Bernardo do Campo SP", "pos": {"lat": -23.689842, "lng": -46.56485}, "height": 1200000, "color": "rgba(255,255,255,1)"}, {"hoverLabel": "Itapira SP", "pos": {"lat": -22.436218, "lng": -46.82288}, "height": 600000, "color": "rgba(255,255,255,1)"}, {"hoverLabel": "Zamora", "pos": {"lat": 19.990177, "lng": -102.28341}, "height": 1200000, "color": "rgba(255,255,255,1)"}, {"hoverLabel": "Shasta CA", "pos": {"lat": 40.598118, "lng": -122.49075}, "height": 200000, "color": "rgba(255,255,255,1)"}, {"hoverLabel": "Conc\u00f3rdia SC", "pos": {"lat": -27.23395, "lng": -52.026466}, "height": 1800000, "color": "rgba(255,255,255,1)"}, {"hoverLabel": "Lomas del Mirador", "pos": {"lat": -34.666363, "lng": -58.5298}, "height": 200000, "color": "rgba(255,255,255,1)"}, {"hoverLabel": "Pescara", "pos": {"lat": 42.461792, "lng": 14.21609}, "height": 1600000, "color": "rgba(255,255,255,1)"}, {"hoverLabel": "Bamako", "pos": {"lat": 12.639232, "lng": -8.00289}, "height": 1200000, "color": "rgba(255,255,255,1)"}, {"hoverLabel": "Batalha PI", "pos": {"lat": -4.023889, "lng": -42.077778}, "height": 600000, "color": "rgba(255,255,255,1)"}, {"hoverLabel": "Fort-de-France", "pos": {"lat": 14.606057, "lng": -61.069885}, "height": 3200000, "color": "rgba(255,255,255,1)"}, {"hoverLabel": "C\u00e1diz", "pos": {"lat": 36.52706, "lng": -6.288596}, "height": 1200000, "color": "rgba(255,255,255,1)"}, {"hoverLabel": "Mataram", "pos": {"lat": -8.576995, "lng": 116.10049}, "height": 1200000, "color": "rgba(255,255,255,1)"}, {"hoverLabel": "Athens OH", "pos": {"lat": 39.32924, "lng": -82.10126}, "height": 1200000, "color": "rgba(255,255,255,1)"}, {"hoverLabel": "Lincoln NE", "pos": {"lat": 40.825764, "lng": -96.685196}, "height": 1600000, "color": "rgba(255,255,255,1)"}, {"hoverLabel": "Kupang", "pos": {"lat": -10.177199, "lng": 123.60703}, "height": 1200000, "color": "rgba(255,255,255,1)"}, {"hoverLabel": "Resende RJ", "pos": {"lat": -22.470966, "lng": -44.451336}, "height": 1200000, "color": "rgba(255,255,255,1)"}, {"hoverLabel": "Puerto del Rosario", "pos": {"lat": 28.50082, "lng": -13.862837}, "height": 1400000, "color": "rgba(255,255,255,1)"}, {"hoverLabel": "Colina", "pos": {"lat": -33.20446, "lng": -70.67585}, "height": 600000, "color": "rgba(255,255,255,1)"}, {"hoverLabel": "Santiago del Estero", "pos": {"lat": -27.783293, "lng": -64.26469}, "height": 600000, "color": "rgba(255,255,255,1)"}, {"hoverLabel": "Tucano BA", "pos": {"lat": -10.958822, "lng": -38.78976}, "height": 200000, "color": "rgba(255,255,255,1)"}, {"hoverLabel": "Ufa", "pos": {"lat": 54.73876, "lng": 55.972054}, "height": 1400000, "color": "rgba(255,255,255,1)"}, {"hoverLabel": "Jelenia G\u00f3ra", "pos": {"lat": 50.90442, "lng": 15.719361}, "height": 1400000, "color": "rgba(255,255,255,1)"}, {"hoverLabel": "Chuy", "pos": {"lat": -33.696705, "lng": -53.461014}, "height": 600000, "color": "rgba(255,255,255,1)"}, {"hoverLabel": "Ratchaburi", "pos": {"lat": 13.528289, "lng": 99.81342}, "height": 600000, "color": "rgba(255,255,255,1)"}, {"hoverLabel": "Maspalomas", "pos": {"lat": 27.760561, "lng": -15.586018}, "height": 2800000, "color": "rgba(255,255,255,1)"}, {"hoverLabel": "Tampico", "pos": {"lat": 22.233105, "lng": -97.8611}, "height": 1400000, "color": "rgba(255,255,255,1)"}, {"hoverLabel": "Vallejo CA", "pos": {"lat": 38.104088, "lng": -122.25664}, "height": 600000, "color": "rgba(255,255,255,1)"}, {"hoverLabel": "Decatur IL", "pos": {"lat": 39.840313, "lng": -88.9548}, "height": 600000, "color": "rgba(255,255,255,1)"}, {"hoverLabel": "Basseterre", "pos": {"lat": 17.302607, "lng": -62.717693}, "height": 1200000, "color": "rgba(255,255,255,1)"}, {"hoverLabel": "Berisso", "pos": {"lat": -34.873066, "lng": -57.883717}, "height": 600000, "color": "rgba(255,255,255,1)"}, {"hoverLabel": "Dracena SP", "pos": {"lat": -21.487206, "lng": -51.536472}, "height": 1200000, "color": "rgba(255,255,255,1)"}, {"hoverLabel": "Bauru SP", "pos": {"lat": -22.314459, "lng": -49.058697}, "height": 2600000, "color": "rgba(255,255,255,1)"}, {"hoverLabel": "S\u00e3o Geraldo de Tumiriting MG", "pos": {"lat": -18.971478, "lng": -41.864933}, "height": 200000, "color": "rgba(255,255,255,1)"}, {"hoverLabel": "Socorro", "pos": {"lat": 6.468665, "lng": -73.26404}, "height": 600000, "color": "rgba(255,255,255,1)"}, {"hoverLabel": "Townsville City", "pos": {"lat": -19.257622, "lng": 146.81787}, "height": 1200000, "color": "rgba(255,255,255,1)"}, {"hoverLabel": "Salvador BA", "pos": {"lat": -12.978226, "lng": -38.503506}, "height": 9200000, "color": "rgba(255,255,255,1)"}, {"hoverLabel": "Kaluga", "pos": {"lat": 54.551857, "lng": 36.2851}, "height": 1400000, "color": "rgba(255,255,255,1)"}, {"hoverLabel": "Gainesville FL", "pos": {"lat": 29.651634, "lng": -82.32483}, "height": 1400000, "color": "rgba(255,255,255,1)"}, {"hoverLabel": "Itamb\u00e9 PE", "pos": {"lat": -7.4107695, "lng": -35.11027}, "height": 200000, "color": "rgba(255,255,255,1)"}, {"hoverLabel": "Viale", "pos": {"lat": -31.869072, "lng": -60.008297}, "height": 600000, "color": "rgba(255,255,255,1)"}, {"hoverLabel": "El Chilamatal", "pos": {"lat": 13.853628, "lng": -89.45354}, "height": 200000, "color": "rgba(255,255,255,1)"}, {"hoverLabel": "Avar\u00e9 SP", "pos": {"lat": -23.107216, "lng": -48.925514}, "height": 1400000, "color": "rgba(255,255,255,1)"}, {"hoverLabel": "Jun\u00edn", "pos": {"lat": -34.58855, "lng": -60.949554}, "height": 1200000, "color": "rgba(255,255,255,1)"}, {"hoverLabel": "Badalona", "pos": {"lat": 41.446987, "lng": 2.2450325}, "height": 600000, "color": "rgba(255,255,255,1)"}, {"hoverLabel": "Rafaela", "pos": {"lat": -31.252598, "lng": -61.491642}, "height": 1400000, "color": "rgba(255,255,255,1)"}, {"hoverLabel": "Iquitos", "pos": {"lat": -3.7436736, "lng": -73.25163}, "height": 1000000, "color": "rgba(255,255,255,1)"}, {"hoverLabel": "Dayton OH", "pos": {"lat": 39.75895, "lng": -84.191605}, "height": 1400000, "color": "rgba(255,255,255,1)"}, {"hoverLabel": "Nijkerk", "pos": {"lat": 52.222485, "lng": 5.4835625}, "height": 1400000, "color": "rgba(255,255,255,1)"}, {"hoverLabel": "Palm Springs CA", "pos": {"lat": 33.830296, "lng": -116.545296}, "height": 1400000, "color": "rgba(255,255,255,1)"}, {"hoverLabel": "Bursa", "pos": {"lat": 40.18853, "lng": 29.060963}, "height": 1600000, "color": "rgba(255,255,255,1)"}, {"hoverLabel": "Wagga Wagga", "pos": {"lat": -35.10817, "lng": 147.35983}, "height": 400000, "color": "rgba(255,255,255,1)"}, {"hoverLabel": "San Lorenzo", "pos": {"lat": -25.344603, "lng": -57.51931}, "height": 600000, "color": "rgba(255,255,255,1)"}, {"hoverLabel": "S\u00e3o Jo\u00e3o PR", "pos": {"lat": -25.827778, "lng": -52.725}, "height": 400000, "color": "rgba(255,255,255,1)"}, {"hoverLabel": "S\u00e3o Bento do Sul SC", "pos": {"lat": -26.250036, "lng": -49.383556}, "height": 600000, "color": "rgba(255,255,255,1)"}, {"hoverLabel": "Bouquet", "pos": {"lat": -32.424107, "lng": -61.88909}, "height": 200000, "color": "rgba(255,255,255,1)"}, {"hoverLabel": "Set\u00fabal", "pos": {"lat": 38.525406, "lng": -8.8941}, "height": 1200000, "color": "rgba(255,255,255,1)"}, {"hoverLabel": "Fremantle", "pos": {"lat": -32.052, "lng": 115.75505}, "height": 600000, "color": "rgba(255,255,255,1)"}, {"hoverLabel": "Pasadena CA", "pos": {"lat": 34.147785, "lng": -118.144516}, "height": 1000000, "color": "rgba(255,255,255,1)"}, {"hoverLabel": "Br\u0103ila", "pos": {"lat": 45.265247, "lng": 27.95947}, "height": 200000, "color": "rgba(255,255,255,1)"}, {"hoverLabel": "Rolim de Moura RO", "pos": {"lat": -11.725698, "lng": -61.77814}, "height": 400000, "color": "rgba(255,255,255,1)"}, {"hoverLabel": "Sukabumi", "pos": {"lat": -6.9277363, "lng": 106.929955}, "height": 1800000, "color": "rgba(255,255,255,1)"}, {"hoverLabel": "Angra dos Reis RJ", "pos": {"lat": -23.005735, "lng": -44.315758}, "height": 1000000, "color": "rgba(255,255,255,1)"}, {"hoverLabel": "Ravine des Cabris", "pos": {"lat": -21.27953, "lng": 55.474857}, "height": 200000, "color": "rgba(255,255,255,1)"}, {"hoverLabel": "Cirencester", "pos": {"lat": 51.718494, "lng": -1.968243}, "height": 400000, "color": "rgba(255,255,255,1)"}, {"hoverLabel": "Kielce", "pos": {"lat": 50.866077, "lng": 20.628569}, "height": 1800000, "color": "rgba(255,255,255,1)"}, {"hoverLabel": "Baghdad", "pos": {"lat": 33.312805, "lng": 44.36149}, "height": 1800000, "color": "rgba(255,255,255,1)"}, {"hoverLabel": "Harare", "pos": {"lat": -17.825165, "lng": 31.03351}, "height": 1800000, "color": "rgba(255,255,255,1)"}, {"hoverLabel": "Puerto Montt", "pos": {"lat": -41.468918, "lng": -72.94114}, "height": 1800000, "color": "rgba(255,255,255,1)"}, {"hoverLabel": "Arica", "pos": {"lat": -18.478254, "lng": -70.3126}, "height": 1800000, "color": "rgba(255,255,255,1)"}, {"hoverLabel": "Tartu", "pos": {"lat": 58.377625, "lng": 26.729006}, "height": 1200000, "color": "rgba(255,255,255,1)"}, {"hoverLabel": "El Bols\u00f3n", "pos": {"lat": -41.964924, "lng": -71.53534}, "height": 1000000, "color": "rgba(255,255,255,1)"}, {"hoverLabel": "Bataypor\u00e3 MS", "pos": {"lat": -22.295189, "lng": -53.27154}, "height": 400000, "color": "rgba(255,255,255,1)"}, {"hoverLabel": "Saladas", "pos": {"lat": -28.255743, "lng": -58.623356}, "height": 400000, "color": "rgba(255,255,255,1)"}, {"hoverLabel": "Evansville IN", "pos": {"lat": 37.971558, "lng": -87.57109}, "height": 1800000, "color": "rgba(255,255,255,1)"}, {"hoverLabel": "Rehoboth", "pos": {"lat": -23.319614, "lng": 17.08938}, "height": 200000, "color": "rgba(255,255,255,1)"}, {"hoverLabel": "Assis SP", "pos": {"lat": -22.660435, "lng": -50.41878}, "height": 1600000, "color": "rgba(255,255,255,1)"}, {"hoverLabel": "Cape Coast", "pos": {"lat": 5.13151, "lng": -1.2794744}, "height": 1000000, "color": "rgba(255,255,255,1)"}, {"hoverLabel": "Chelyabinsk", "pos": {"lat": 55.16444, "lng": 61.436844}, "height": 1000000, "color": "rgba(255,255,255,1)"}, {"hoverLabel": "Jerusalem", "pos": {"lat": 31.768318, "lng": 35.21371}, "height": 2600000, "color": "rgba(255,255,255,1)"}, {"hoverLabel": "Ciudad Obreg\u00f3n", "pos": {"lat": 27.482773, "lng": -109.93037}, "height": 2000000, "color": "rgba(255,255,255,1)"}, {"hoverLabel": "Chekhov", "pos": {"lat": 55.152622, "lng": 37.460476}, "height": 200000, "color": "rgba(255,255,255,1)"}, {"hoverLabel": "San Angelo TX", "pos": {"lat": 31.463772, "lng": -100.437035}, "height": 1600000, "color": "rgba(255,255,255,1)"}, {"hoverLabel": "Chernihiv", "pos": {"lat": 51.4982, "lng": 31.28935}, "height": 400000, "color": "rgba(255,255,255,1)"}, {"hoverLabel": "Caldera", "pos": {"lat": -27.0667, "lng": -70.81782}, "height": 400000, "color": "rgba(255,255,255,1)"}, {"hoverLabel": "Maturin", "pos": {"lat": 9.733391, "lng": -63.191433}, "height": 2000000, "color": "rgba(255,255,255,1)"}, {"hoverLabel": "Offa", "pos": {"lat": 8.13934, "lng": 4.7174063}, "height": 200000, "color": "rgba(255,255,255,1)"}, {"hoverLabel": "Santo Ant\u00f4nio de Jesus BA", "pos": {"lat": -12.969876, "lng": -39.26171}, "height": 1000000, "color": "rgba(255,255,255,1)"}, {"hoverLabel": "Perm", "pos": {"lat": 58.029682, "lng": 56.266792}, "height": 2000000, "color": "rgba(255,255,255,1)"}, {"hoverLabel": "Frederico Westphalen RS", "pos": {"lat": -27.359123, "lng": -53.396336}, "height": 400000, "color": "rgba(255,255,255,1)"}, {"hoverLabel": "Yoshkar-Ola", "pos": {"lat": 56.64022, "lng": 47.883858}, "height": 1000000, "color": "rgba(255,255,255,1)"}, {"hoverLabel": "Matagalpa", "pos": {"lat": 12.929007, "lng": -85.91512}, "height": 1000000, "color": "rgba(255,255,255,1)"}, {"hoverLabel": "Islamabad", "pos": {"lat": 33.729782, "lng": 73.09315},