[{"zoomLevel": 150, "dataType": "cylinder", "data": [{"hoverLabel": "Al Jazri Lab", "pos": {"lat": 25, "lng": 55.75}, "height": 1, "color": "rgba(0,255,0,1)"}, {"hoverLabel": "FabLab INSA Strasbourg", "pos": {"lat": 48.583148, "lng": 7.747882}, "height": 1, "color": "rgba(0,255,0,1)"}, {"hoverLabel": "la FABrique du Loch", "pos": {"lat": 47.6683953, "lng": -2.98601080000003}, "height": 1, "color": "rgba(0,255,0,1)"}, {"hoverLabel": "PiNG", "pos": {"lat": 47.218371, "lng": -1.55362100000002}, "height": 1, "color": "rgba(0,255,0,1)"}, {"hoverLabel": "FabLab@HBK-Essen", "pos": {"lat": 51.3905513, "lng": 7.0776887}, "height": 1, "color": "rgba(0,255,0,1)"}, {"hoverLabel": "FabLab Zagreb", "pos": {"lat": 45.8120958, "lng": 15.9654375}, "height": 1, "color": "rgba(0,255,0,1)"}, {"hoverLabel": "Fab Lab Irbid", "pos": {"lat": 32.488820347859, "lng": 35.9763458481323}, "height": 1, "color": "rgba(0,255,0,1)"}, {"hoverLabel": "Fab Lab Lleida", "pos": {"lat": 41.623023, "lng": 0.625863600000002}, "height": 1, "color": "rgba(0,255,0,1)"}, {"hoverLabel": "FABLAB KERALA - Trivandrum", "pos": {"lat": 8.5571667, "lng": 76.8802965}, "height": 1, "color": "rgba(0,255,0,1)"}, {"hoverLabel": "Ostriv Platform", "pos": {"lat": 50.4301863, "lng": 30.4513123}, "height": 1, "color": "rgba(0,255,0,1)"}, {"hoverLabel": "Fab Lab Afghanistan", "pos": {"lat": 34.4344689, "lng": 70.4485052}, "height": 1, "color": "rgba(0,255,0,1)"}, {"hoverLabel": "Drone Lab Brasil", "pos": {"lat": -23.5420174, "lng": -46.6357797}, "height": 1, "color": "rgba(0,255,0,1)"}, {"hoverLabel": "Fab Lab Carnegie Science Center", "pos": {"lat": 40.446191, "lng": -80.0188206}, "height": 1, "color": "rgba(0,255,0,1)"}, {"hoverLabel": "Icelandic Textile Center", "pos": {"lat": 65.6617126, "lng": -20.2912346}, "height": 1, "color": "rgba(0,255,0,1)"}, {"hoverLabel": "Fab Lab Casa Firjan", "pos": {"lat": -22.9499256, "lng": -43.1885823}, "height": 1, "color": "rgba(0,255,0,1)"}, {"hoverLabel": "Fab Lab IDEX Huando", "pos": {"lat": -11.4849147, "lng": -77.1837993}, "height": 1, "color": "rgba(0,255,0,1)"}, {"hoverLabel": "FabLab JCCSSYL", "pos": {"lat": 22.4535041, "lng": 114.0029989}, "height": 1, "color": "rgba(0,255,0,1)"}, {"hoverLabel": "Ongola Fablab", "pos": {"lat": 3.8577597, "lng": 11.5070915}, "height": 1, "color": "rgba(0,255,0,1)"}, {"hoverLabel": "Yansokilab", "pos": {"lat": 3.9698931, "lng": 9.7918787}, "height": 1, "color": "rgba(0,255,0,1)"}, {"hoverLabel": "ZEBRA3-SculptureClub", "pos": {"lat": 44.858649, "lng": -0.544868}, "height": 1, "color": "rgba(0,255,0,1)"}, {"hoverLabel": "Le Nautilus / MicroFolie", "pos": {"lat": 50.7333125, "lng": 1.6005625}, "height": 1, "color": "rgba(0,255,0,1)"}, {"hoverLabel": "Fab Lab Strandir", "pos": {"lat": 65.7029458, "lng": -21.679271}, "height": 1, "color": "rgba(0,255,0,1)"}, {"hoverLabel": "FabLab du D\u00f4me \u00e0 Caen", "pos": {"lat": 49.181016, "lng": -0.347539}, "height": 1, "color": "rgba(0,255,0,1)"}, {"hoverLabel": "Trinity-Area High School Fab Lab", "pos": {"lat": 40.1644125, "lng": -80.2484335}, "height": 1, "color": "rgba(0,255,0,1)"}, {"hoverLabel": "FabLab Jerusalem", "pos": {"lat": 31.768602, "lng": 35.213947}, "height": 1, "color": "rgba(0,255,0,1)"}, {"hoverLabel": "BUDA::lab", "pos": {"lat": 50.8316389, "lng": 3.26404418836057}, "height": 1, "color": "rgba(0,255,0,1)"}, {"hoverLabel": "Fab Lab Tenerife", "pos": {"lat": 28.2558131, "lng": -16.6246067}, "height": 1, "color": "rgba(0,255,0,1)"}, {"hoverLabel": "Plataforma de Gesti\u00f3n de la Inteligencia Colectiva para el Desarrollo de Sierra Grande/Playas Doradas (Patagonia Argentina)", "pos": {"lat": -41.60603, "lng": -65.35574}, "height": 1, "color": "rgba(0,255,0,1)"}, {"hoverLabel": "FabLAB amadomakerUPF", "pos": {"lat": -28.2334672, "lng": -52.4056841}, "height": 1, "color": "rgba(0,255,0,1)"}, {"hoverLabel": "South Side High School Innovation FabLab", "pos": {"lat": 35.5695868, "lng": -88.8100614}, "height": 1, "color": "rgba(0,255,0,1)"}, {"hoverLabel": "D'lab Leeuwarden", "pos": {"lat": 53.1997459, "lng": 5.8007187}, "height": 1, "color": "rgba(0,255,0,1)"}, {"hoverLabel": "UF Fablab", "pos": {"lat": 50.45466, "lng": 30.5238}, "height": 1, "color": "rgba(0,255,0,1)"}, {"hoverLabel": "Hope Lab", "pos": {"lat": 32.0646992, "lng": 34.7725136}, "height": 1, "color": "rgba(0,255,0,1)"}, {"hoverLabel": "Fab Lab Madrid CEU", "pos": {"lat": 40.40016, "lng": -3.83506}, "height": 1, "color": "rgba(0,255,0,1)"}, {"hoverLabel": "FABLAB Bicol, Legazpi City Philippines", "pos": {"lat": 13.1470442178932, "lng": 123.729122452271}, "height": 1, "color": "rgba(0,255,0,1)"}, {"hoverLabel": "Le Prototype - EleFab", "pos": {"lat": 45.5661686, "lng": 5.92676759999995}, "height": 1, "color": "rgba(0,255,0,1)"}, {"hoverLabel": "Makerspace 56", "pos": {"lat": 47.6423116, "lng": -2.75416919999998}, "height": 1, "color": "rgba(0,255,0,1)"}, {"hoverLabel": "Fab Lab Toscana Cascina", "pos": {"lat": 43.684447, "lng": 10.4889971}, "height": 1, "color": "rgba(0,255,0,1)"}, {"hoverLabel": "Fablab Vichy Communaut\u00e9", "pos": {"lat": 46.1293388, "lng": 3.4308049}, "height": 1, "color": "rgba(0,255,0,1)"}, {"hoverLabel": "FABLAB UP CIDETE", "pos": {"lat": 8.174962, "lng": -80.9760556}, "height": 1, "color": "rgba(0,255,0,1)"}, {"hoverLabel": "Fablab Kamakura", "pos": {"lat": 35.3215168, "lng": 139.5501477}, "height": 1, "color": "rgba(0,255,0,1)"}, {"hoverLabel": "WoMa", "pos": {"lat": 48.8878506, "lng": 2.38275279999993}, "height": 1, "color": "rgba(0,255,0,1)"}, {"hoverLabel": "Social FabLab", "pos": {"lat": 42.724775, "lng": 12.096597}, "height": 1, "color": "rgba(0,255,0,1)"}, {"hoverLabel": "NumLab_Guyane", "pos": {"lat": 4.935548, "lng": -52.321776}, "height": 1, "color": "rgba(0,255,0,1)"}, {"hoverLabel": "Tinki Lab", "pos": {"lat": -11.8855889, "lng": -77.0257808}, "height": 1, "color": "rgba(0,255,0,1)"}, {"hoverLabel": "Makerspace Bocholt", "pos": {"lat": 51.8387771, "lng": 6.6039143}, "height": 1, "color": "rgba(0,255,0,1)"}, {"hoverLabel": "Trikey Space", "pos": {"lat": 43.2140577, "lng": 27.9147198}, "height": 1, "color": "rgba(0,255,0,1)"}, {"hoverLabel": "Les \u00e9tablis&co", "pos": {"lat": 46.1541442, "lng": -1.11822230000007}, "height": 1, "color": "rgba(0,255,0,1)"}, {"hoverLabel": "FabLab Faenza", "pos": {"lat": 44.2875145, "lng": 11.8867746}, "height": 1, "color": "rgba(0,255,0,1)"}, {"hoverLabel": "Fab Lab IDEX Simon Bolivar", "pos": {"lat": -12.0579064, "lng": -77.1088747}, "height": 1, "color": "rgba(0,255,0,1)"}, {"hoverLabel": "Fab Lab Joinville", "pos": {"lat": -26.3011608, "lng": -48.8512936}, "height": 1, "color": "rgba(0,255,0,1)"}, {"hoverLabel": "Global Center for Digital Innovation", "pos": {"lat": 35.1001291, "lng": -85.2373215}, "height": 1, "color": "rgba(0,255,0,1)"}, {"hoverLabel": "Fab Lab IDEX Manuel Antonio Hierro Pozo", "pos": {"lat": -13.1508013, "lng": -74.219101}, "height": 1, "color": "rgba(0,255,0,1)"}, {"hoverLabel": "Fab Lab Armenia Education Foundation", "pos": {"lat": 40.7462661, "lng": 44.8336341}, "height": 1, "color": "rgba(0,255,0,1)"}, {"hoverLabel": "Incite Focus FabLab", "pos": {"lat": 42.3315347, "lng": -83.0451167}, "height": 1, "color": "rgba(0,255,0,1)"}, {"hoverLabel": "FAB LAB UPSA", "pos": {"lat": -17.762898, "lng": -63.147768}, "height": 1, "color": "rgba(0,255,0,1)"}, {"hoverLabel": "FabLab YACHAY", "pos": {"lat": 0.4213223, "lng": -78.1854039}, "height": 1, "color": "rgba(0,255,0,1)"}, {"hoverLabel": "FabLabIUB", "pos": {"lat": 23.8153848986098, "lng": 90.4276937715058}, "height": 1, "color": "rgba(0,255,0,1)"}, {"hoverLabel": "Fablab Leoben", "pos": {"lat": 47.3810172, "lng": 15.0963055}, "height": 1, "color": "rgba(0,255,0,1)"}, {"hoverLabel": "Fablab de Luzy", "pos": {"lat": 46.7902612, "lng": 3.9703936}, "height": 1, "color": "rgba(0,255,0,1)"}, {"hoverLabel": "Tiradentes Fab Lab", "pos": {"lat": -10.9678746, "lng": -37.0596936}, "height": 1, "color": "rgba(0,255,0,1)"}, {"hoverLabel": "Offene Werkstatt Gilching", "pos": {"lat": 48.1089534, "lng": 11.3005405}, "height": 1, "color": "rgba(0,255,0,1)"}, {"hoverLabel": "Resonator", "pos": {"lat": 42.65, "lng": 23.63333}, "height": 1, "color": "rgba(0,255,0,1)"}, {"hoverLabel": "USC Maker Space", "pos": {"lat": -26.718022501587, "lng": 153.061387941772}, "height": 1, "color": "rgba(0,255,0,1)"}, {"hoverLabel": "FabLab Chemnitz", "pos": {"lat": 50.8312971, "lng": 12.9399134}, "height": 1, "color": "rgba(0,255,0,1)"}, {"hoverLabel": "Fab Lab Orhei", "pos": {"lat": 47.3855571, "lng": 28.8293082}, "height": 1, "color": "rgba(0,255,0,1)"}, {"hoverLabel": "FabLab Allg\u00e4u", "pos": {"lat": 47.709999, "lng": 10.3204441}, "height": 1, "color": "rgba(0,255,0,1)"}, {"hoverLabel": "IROKO FabLab", "pos": {"lat": 6.3736012, "lng": 2.4257544}, "height": 1, "color": "rgba(0,255,0,1)"}, {"hoverLabel": "Mountain Lab", "pos": {"lat": -0.167988, "lng": -78.4799259}, "height": 1, "color": "rgba(0,255,0,1)"}, {"hoverLabel": "Fab Lab Maya", "pos": {"lat": 19.5685909029975, "lng": -88.0456083264587}, "height": 1, "color": "rgba(0,255,0,1)"}, {"hoverLabel": "BerryLab36", "pos": {"lat": 46.8120971679806, "lng": 1.67516519986111}, "height": 1, "color": "rgba(0,255,0,1)"}, {"hoverLabel": "xyz", "pos": {"lat": 39.7560469, "lng": -100.712877}, "height": 1, "color": "rgba(0,255,0,1)"}, {"hoverLabel": "Fab Lab UNI", "pos": {"lat": -12.0207515, "lng": -77.0511188}, "height": 1, "color": "rgba(0,255,0,1)"}, {"hoverLabel": "EspaceLab", "pos": {"lat": 46.7704126, "lng": -71.2939768}, "height": 1, "color": "rgba(0,255,0,1)"}, {"hoverLabel": "Sanjivani Fab Lab", "pos": {"lat": 19.9008768, "lng": 74.4946956}, "height": 1, "color": "rgba(0,255,0,1)"}, {"hoverLabel": "Surry Design Lab", "pos": {"lat": 44.4993382, "lng": -68.5034379}, "height": 1, "color": "rgba(0,255,0,1)"}, {"hoverLabel": "Fablab Puiching (Macao)", "pos": {"lat": 22.2015508, "lng": 113.5482345}, "height": 1, "color": "rgba(0,255,0,1)"}, {"hoverLabel": "Port-Vendres FabLab", "pos": {"lat": 42.5209078, "lng": 3.1053951}, "height": 1, "color": "rgba(0,255,0,1)"}, {"hoverLabel": "fablab iMAL", "pos": {"lat": 50.8551302, "lng": 4.34241989999998}, "height": 1, "color": "rgba(0,255,0,1)"}, {"hoverLabel": "FabLab Escola Concept SP ", "pos": {"lat": -23.5798975, "lng": -46.679039}, "height": 1, "color": "rgba(0,255,0,1)"}, {"hoverLabel": "FABLAB-OLMECA", "pos": {"lat": 18.047894874702, "lng": -94.4027981359375}, "height": 1, "color": "rgba(0,255,0,1)"}, {"hoverLabel": "FabLab SFedU", "pos": {"lat": 47.2151289091079, "lng": 39.6259588200684}, "height": 1, "color": "rgba(0,255,0,1)"}, {"hoverLabel": "Fabmobil", "pos": {"lat": 51.0504088, "lng": 13.7372621}, "height": 1, "color": "rgba(0,255,0,1)"}, {"hoverLabel": "LeMakerspace", "pos": {"lat": 43.801208, "lng": -0.915457}, "height": 1, "color": "rgba(0,255,0,1)"}, {"hoverLabel": "FabLab Karlsruhe e.V", "pos": {"lat": 49.0045533057499, "lng": 8.42915382324409}, "height": 1, "color": "rgba(0,255,0,1)"}, {"hoverLabel": "ferm\u00e9", "pos": {"lat": 49.4977263, "lng": 0.123766799999999}, "height": 1, "color": "rgba(0,255,0,1)"}, {"hoverLabel": "The Making Rooms", "pos": {"lat": 53.7488931, "lng": -2.48277680000001}, "height": 1, "color": "rgba(0,255,0,1)"}, {"hoverLabel": "3D-DRUCKZENTRUM-RUHR", "pos": {"lat": 51.4586455659824, "lng": 7.0142108441803}, "height": 1, "color": "rgba(0,255,0,1)"}, {"hoverLabel": "Fab Lab Beni Suef STEM School", "pos": {"lat": 29.066135, "lng": 31.099421}, "height": 1, "color": "rgba(0,255,0,1)"}, {"hoverLabel": "FabLab powered by Orange", "pos": {"lat": 52.2347069, "lng": 20.9991314}, "height": 1, "color": "rgba(0,255,0,1)"}, {"hoverLabel": "FabLab Spinderihallerne ", "pos": {"lat": 55.714257, "lng": 9.530883}, "height": 1, "color": "rgba(0,255,0,1)"}, {"hoverLabel": "The Design Fablab ", "pos": {"lat": 28.5944871, "lng": 77.3266022}, "height": 1, "color": "rgba(0,255,0,1)"}, {"hoverLabel": "Pierce Fab Lab", "pos": {"lat": 38.0030486, "lng": 23.8301386}, "height": 1, "color": "rgba(0,255,0,1)"}, {"hoverLabel": "ICI Nantes", "pos": {"lat": 47.2255555, "lng": -1.5376241}, "height": 1, "color": "rgba(0,255,0,1)"}, {"hoverLabel": "Pracownia Aktywnego Korzystania z Technologii Wroc\u0142aw", "pos": {"lat": 51.1279879, "lng": 17.053762}, "height": 1, "color": "rgba(0,255,0,1)"}, {"hoverLabel": "Fablab Nagpur", "pos": {"lat": 21.121027, "lng": 79.054041}, "height": 1, "color": "rgba(0,255,0,1)"}, {"hoverLabel": "FaberLab Varese", "pos": {"lat": 45.7033272, "lng": 8.90522}, "height": 1, "color": "rgba(0,255,0,1)"}, {"hoverLabel": "FabLab M\u00fcnchen e.V.", "pos": {"lat": 48.1370918, "lng": 11.5340398}, "height": 1, "color": "rgba(0,255,0,1)"}, {"hoverLabel": "Fab lab Outaouais par La Fabrique Mobile de l'Outaouais", "pos": {"lat": 45.459193, "lng": -75.7697277}, "height": 1, "color": "rgba(0,255,0,1)"}, {"hoverLabel": "KIIT TBI FABLAB", "pos": {"lat": 20.2602964, "lng": 85.8394521}, "height": 1, "color": "rgba(0,255,0,1)"}, {"hoverLabel": "Fablab-Leuven", "pos": {"lat": 50.861011, "lng": 4.68165599999998}, "height": 1, "color": "rgba(0,255,0,1)"}, {"hoverLabel": "VIVA Lab", "pos": {"lat": 41.1620126, "lng": -8.63733760000002}, "height": 1, "color": "rgba(0,255,0,1)"}, {"hoverLabel": "Fablab puiching(Macau)", "pos": {"lat": 22.2015508, "lng": 113.5482345}, "height": 1, "color": "rgba(0,255,0,1)"}, {"hoverLabel": "TECNOPUC FabLab - FreeZone  ", "pos": {"lat": -30.0603571, "lng": -51.169564}, "height": 1, "color": "rgba(0,255,0,1)"}, {"hoverLabel": "Cape Craft and Design Institute", "pos": {"lat": -33.9248685, "lng": 18.4240553}, "height": 1, "color": "rgba(0,255,0,1)"}, {"hoverLabel": "FabLab DongGuan", "pos": {"lat": 22.9353578, "lng": 113.8874546}, "height": 1, "color": "rgba(0,255,0,1)"}, {"hoverLabel": "DEZENTRALE", "pos": {"lat": 51.5100738, "lng": 7.4397827}, "height": 1, "color": "rgba(0,255,0,1)"}, {"hoverLabel": "FAB LAB Godoy Cruz", "pos": {"lat": -32.94356, "lng": -68.8185255}, "height": 1, "color": "rgba(0,255,0,1)"}, {"hoverLabel": "Republikken Create", "pos": {"lat": 55.672395, "lng": 12.558029}, "height": 1, "color": "rgba(0,255,0,1)"}, {"hoverLabel": "Netaji Subhas Institute of Technology", "pos": {"lat": 28.7040592, "lng": 77.1024901999999}, "height": 1, "color": "rgba(0,255,0,1)"}, {"hoverLabel": "Indian Institute of Technology", "pos": {"lat": 26.449923, "lng": 80.3318736}, "height": 1, "color": "rgba(0,255,0,1)"}, {"hoverLabel": "Lab Maker Living Lab MS", "pos": {"lat": -20.4532035, "lng": -54.6051043}, "height": 1, "color": "rgba(0,255,0,1)"}, {"hoverLabel": "MVCCFABLab", "pos": {"lat": 43.077007, "lng": -75.218217}, "height": 1, "color": "rgba(0,255,0,1)"}, {"hoverLabel": "Fab Lab Sant Cugat", "pos": {"lat": 41.4670863, "lng": 2.09194170000001}, "height": 1, "color": "rgba(0,255,0,1)"}, {"hoverLabel": "Tatcraft", "pos": {"lat": 50.1405301, "lng": 8.7364417}, "height": 1, "color": "rgba(0,255,0,1)"}, {"hoverLabel": "Shukhov Lab", "pos": {"lat": 55.7613054, "lng": 37.6330728}, "height": 1, "color": "rgba(0,255,0,1)"}, {"hoverLabel": "iLab Mostar", "pos": {"lat": 43.3126852, "lng": 17.8296384}, "height": 1, "color": "rgba(0,255,0,1)"}, {"hoverLabel": "Fab Lab Akranes, Innovation Center Iceland", "pos": {"lat": 64.322357, "lng": -22.07443}, "height": 1, "color": "rgba(0,255,0,1)"}, {"hoverLabel": "FabLab Orl\u00e9anais", "pos": {"lat": 47.8442611, "lng": 1.93895929999996}, "height": 1, "color": "rgba(0,255,0,1)"}, {"hoverLabel": "OpenLab Hamburg", "pos": {"lat": 53.5688308, "lng": 10.1073851}, "height": 1, "color": "rgba(0,255,0,1)"}, {"hoverLabel": "Fablab Ogeum", "pos": {"lat": 37.5004871, "lng": 127.1411087}, "height": 1, "color": "rgba(0,255,0,1)"}, {"hoverLabel": "La Fabrique Retiers", "pos": {"lat": 47.9164554, "lng": -1.3845337}, "height": 1, "color": "rgba(0,255,0,1)"}, {"hoverLabel": "HONFablab", "pos": {"lat": -7.8079782, "lng": 110.3772675}, "height": 1, "color": "rgba(0,255,0,1)"}, {"hoverLabel": "Fablab UAE Van", "pos": {"lat": 25.2186974, "lng": 55.2693962000001}, "height": 1, "color": "rgba(0,255,0,1)"}, {"hoverLabel": "FAB@CIC", "pos": {"lat": 42.357004, "lng": -71.057619}, "height": 1, "color": "rgba(0,255,0,1)"}, {"hoverLabel": "ISA Innovation Centre", "pos": {"lat": 23.15365, "lng": 113.43286}, "height": 1, "color": "rgba(0,255,0,1)"}, {"hoverLabel": "FabLab UAE School", "pos": {"lat": 25.2766063, "lng": 55.3427795}, "height": 1, "color": "rgba(0,255,0,1)"}, {"hoverLabel": "coolcsn", "pos": {"lat": 42.1306636558279, "lng": 24.7049189187439}, "height": 1, "color": "rgba(0,255,0,1)"}, {"hoverLabel": "GreenLab Microfactory", "pos": {"lat": 7.3228734, "lng": 3.78803489999996}, "height": 1, "color": "rgba(0,255,0,1)"}, {"hoverLabel": "Makeo", "pos": {"lat": 43.719943, "lng": -1.0519597}, "height": 1, "color": "rgba(0,255,0,1)"}, {"hoverLabel": "LabOuest", "pos": {"lat": 46.6741615, "lng": -1.4352446}, "height": 1, "color": "rgba(0,255,0,1)"}, {"hoverLabel": "Hammertime Kassel", "pos": {"lat": 51.3166, "lng": 9.4912}, "height": 1, "color": "rgba(0,255,0,1)"}, {"hoverLabel": "UBO Open Factory", "pos": {"lat": 48.3997601, "lng": -4.4969247}, "height": 1, "color": "rgba(0,255,0,1)"}, {"hoverLabel": "Polytech FABLAB", "pos": {"lat": 36.7525, "lng": 3.04197}, "height": 1, "color": "rgba(0,255,0,1)"}, {"hoverLabel": "K-Lab Yangon", "pos": {"lat": 16.8555789, "lng": 96.1350105}, "height": 1, "color": "rgba(0,255,0,1)"}, {"hoverLabel": "Thilab", "pos": {"lat": 49.3435509129817, "lng": 6.16001459252925}, "height": 1, "color": "rgba(0,255,0,1)"}, {"hoverLabel": "Fab Lab Leonardo da Vinci", "pos": {"lat": -19.9673088, "lng": -44.2011917}, "height": 1, "color": "rgba(0,255,0,1)"}, {"hoverLabel": "MakersLab", "pos": {"lat": 52.0220908, "lng": 5.6612347}, "height": 1, "color": "rgba(0,255,0,1)"}, {"hoverLabel": "LEAP Academy Fabrication Lab", "pos": {"lat": 39.9460794, "lng": -75.1183046}, "height": 1, "color": "rgba(0,255,0,1)"}, {"hoverLabel": "R\u00e9pareRecycle / 974", "pos": {"lat": -21.2328589, "lng": 55.5786829}, "height": 1, "color": "rgba(0,255,0,1)"}, {"hoverLabel": "Cranial", "pos": {"lat": 42.574931, "lng": -83.257348}, "height": 1, "color": "rgba(0,255,0,1)"}, {"hoverLabel": "FAB LAB Ch\u00e2teau Thierry", "pos": {"lat": 49.0408992, "lng": 3.39949879999995}, "height": 1, "color": "rgba(0,255,0,1)"}, {"hoverLabel": "Fab Lab Castelldefels", "pos": {"lat": 41.2760021, "lng": 1.9887942}, "height": 1, "color": "rgba(0,255,0,1)"}, {"hoverLabel": "FabLab Breda / moved to library ", "pos": {"lat": 51.5876975, "lng": 4.77891729999999}, "height": 1, "color": "rgba(0,255,0,1)"}, {"hoverLabel": "Fablab Beni Suef", "pos": {"lat": 29.0709455, "lng": 31.1023348}, "height": 1, "color": "rgba(0,255,0,1)"}, {"hoverLabel": "Al Mashtal Makers Lab", "pos": {"lat": 24.68773, "lng": 46.72185}, "height": 1, "color": "rgba(0,255,0,1)"}, {"hoverLabel": "FabLab UNSAM", "pos": {"lat": -34.5818553, "lng": -58.5193243}, "height": 1, "color": "rgba(0,255,0,1)"}, {"hoverLabel": "FFL Fab Lab", "pos": {"lat": 43.029777, "lng": -76.004448}, "height": 1, "color": "rgba(0,255,0,1)"}, {"hoverLabel": "FabLab Kyushu Univ.", "pos": {"lat": 33.5606499, "lng": 130.4305253}, "height": 1, "color": "rgba(0,255,0,1)"}, {"hoverLabel": "Fab Lab Halmstad", "pos": {"lat": 56.663479, "lng": 12.8792976}, "height": 1, "color": "rgba(0,255,0,1)"}, {"hoverLabel": "Fablab Bhutan", "pos": {"lat": 27.4730743, "lng": 89.6386794}, "height": 1, "color": "rgba(0,255,0,1)"}, {"hoverLabel": "FabLab Berkane", "pos": {"lat": 34.92, "lng": -2.32}, "height": 1, "color": "rgba(0,255,0,1)"}, {"hoverLabel": "Edgewood Middle School Fab Lab", "pos": {"lat": 45.1057411, "lng": -93.2038144}, "height": 1, "color": "rgba(0,255,0,1)"}, {"hoverLabel": "LimouziLab", "pos": {"lat": 45.8396337, "lng": 1.26702669999997}, "height": 1, "color": "rgba(0,255,0,1)"}, {"hoverLabel": "Fablab Poliba", "pos": {"lat": 41.1193193, "lng": 16.6750988}, "height": 1, "color": "rgba(0,255,0,1)"}, {"hoverLabel": "FabLab Setagaya at IID", "pos": {"lat": 35.6463691010757, "lng": 139.680888014017}, "height": 1, "color": "rgba(0,255,0,1)"}, {"hoverLabel": "AMADOTEC FAB LAB", "pos": {"lat": -23.0790945, "lng": -47.2135766}, "height": 1, "color": "rgba(0,255,0,1)"}, {"hoverLabel": "The CoMAKING Space", "pos": {"lat": 41.4923, "lng": 2.033}, "height": 1, "color": "rgba(0,255,0,1)"}, {"hoverLabel": "Fablab Zhengzhou", "pos": {"lat": 34.7923693112697, "lng": 113.543574269226}, "height": 1, "color": "rgba(0,255,0,1)"}, {"hoverLabel": "Protospace/FabLab Utrecht", "pos": {"lat": 52.09179, "lng": 5.11456989999999}, "height": 1, "color": "rgba(0,255,0,1)"}, {"hoverLabel": "Creative Factory", "pos": {"lat": 35.8724487, "lng": 128.6248257}, "height": 1, "color": "rgba(0,255,0,1)"}, {"hoverLabel": "La Bricoth\u00e8que, fablab de Pernes", "pos": {"lat": 44.001178, "lng": 5.059718}, "height": 1, "color": "rgba(0,255,0,1)"}, {"hoverLabel": "ROBOKIDS centar", "pos": {"lat": 44.7721811, "lng": 17.191}, "height": 1, "color": "rgba(0,255,0,1)"}, {"hoverLabel": "FabLab BEN", "pos": {"lat": 44.8028846, "lng": -0.546448}, "height": 1, "color": "rgba(0,255,0,1)"}, {"hoverLabel": "Technoport FabLabs (Belval & Differdange)", "pos": {"lat": 49.5024421, "lng": 5.9492336}, "height": 1, "color": "rgba(0,255,0,1)"}, {"hoverLabel": "AIC-RNTU FabLab", "pos": {"lat": 23.1342968, "lng": 77.5642909}, "height": 1, "color": "rgba(0,255,0,1)"}, {"hoverLabel": "KEOLAB", "pos": {"lat": 12.36566, "lng": -1.53388}, "height": 1, "color": "rgba(0,255,0,1)"}, {"hoverLabel": "FabLab Mahdia", "pos": {"lat": 35.5021873, "lng": 11.0485692}, "height": 1, "color": "rgba(0,255,0,1)"}, {"hoverLabel": "FabLab TU-Berlin", "pos": {"lat": 52.5136416, "lng": 13.323186}, "height": 1, "color": "rgba(0,255,0,1)"}, {"hoverLabel": "fablab UDLA", "pos": {"lat": -0.1672623, "lng": -78.4726324}, "height": 1, "color": "rgba(0,255,0,1)"}, {"hoverLabel": "Heera College Of Engineering and Technology-FABLAB", "pos": {"lat": 8.6834256, "lng": 76.9821346}, "height": 1, "color": "rgba(0,255,0,1)"}, {"hoverLabel": "FABLAB Liberec", "pos": {"lat": 50.766701, "lng": 15.0540884}, "height": 1, "color": "rgba(0,255,0,1)"}, {"hoverLabel": "3DBell FabLab", "pos": {"lat": 40.7845779, "lng": 14.7605383}, "height": 1, "color": "rgba(0,255,0,1)"}, {"hoverLabel": "Fablab Codeloccol", "pos": {"lat": 18, "lng": 9}, "height": 1, "color": "rgba(0,255,0,1)"}, {"hoverLabel": "FABLAB IZTECH", "pos": {"lat": 38.3252922, "lng": 26.630165}, "height": 1, "color": "rgba(0,255,0,1)"}, {"hoverLabel": "FABLAB UPSACLAY ", "pos": {"lat": 48.7117632, "lng": 2.1683098}, "height": 1, "color": "rgba(0,255,0,1)"}, {"hoverLabel": "Valeggio FabLab", "pos": {"lat": 45.31581, "lng": 10.76215}, "height": 1, "color": "rgba(0,255,0,1)"}, {"hoverLabel": "Fab Lab Boston @ South End Technology Center", "pos": {"lat": 42.3456599, "lng": -71.0758048}, "height": 1, "color": "rgba(0,255,0,1)"}, {"hoverLabel": "SFSD FAB LAB", "pos": {"lat": 42.978067, "lng": -87.8755908}, "height": 1, "color": "rgba(0,255,0,1)"}, {"hoverLabel": "Digihub - FAB LAB Davao", "pos": {"lat": 7.0864658, "lng": 125.6153872}, "height": 1, "color": "rgba(0,255,0,1)"}, {"hoverLabel": "Northwest Arkansas Fab Lab (NWA Fab Lab)", "pos": {"lat": 36.0616253, "lng": -94.1603548}, "height": 1, "color": "rgba(0,255,0,1)"}, {"hoverLabel": "FunLab", "pos": {"lat": 44.8579012, "lng": 1.89569019999999}, "height": 1, "color": "rgba(0,255,0,1)"}, {"hoverLabel": "Fab Lab Wgtn", "pos": {"lat": -41.3002327, "lng": 174.7765134}, "height": 1, "color": "rgba(0,255,0,1)"}, {"hoverLabel": "SF FAB LAB", "pos": {"lat": 42.978067, "lng": -87.8755908}, "height": 1, "color": "rgba(0,255,0,1)"}, {"hoverLabel": "Fab Lab AUC", "pos": {"lat": 30.0191611823412, "lng": 31.4985885436492}, "height": 1, "color": "rgba(0,255,0,1)"}, {"hoverLabel": "Pickerington Mobile Fab Lab", "pos": {"lat": 39.8842304, "lng": -82.7535049}, "height": 1, "color": "rgba(0,255,0,1)"}, {"hoverLabel": "Hradec Kralove", "pos": {"lat": 50.2103605, "lng": 15.825211}, "height": 1, "color": "rgba(0,255,0,1)"}, {"hoverLabel": "VASCSC FabLab", "pos": {"lat": 23.0361548, "lng": 72.5492968}, "height": 1, "color": "rgba(0,255,0,1)"}, {"hoverLabel": "Fab Lab Athens", "pos": {"lat": 37.9837182, "lng": 23.7292917}, "height": 1, "color": "rgba(0,255,0,1)"}, {"hoverLabel": "FabLab MinatoMirai - Kanagawa University", "pos": {"lat": 35.3450786, "lng": 139.2603046}, "height": 1, "color": "rgba(0,255,0,1)"}, {"hoverLabel": "Choego FabLab", "pos": {"lat": 27.4825494, "lng": 89.6320559}, "height": 1, "color": "rgba(0,255,0,1)"}, {"hoverLabel": "ATIS Makerspace", "pos": {"lat": 12.36566, "lng": -1.53388}, "height": 1, "color": "rgba(0,255,0,1)"}, {"hoverLabel": "FabLab Ucontinental", "pos": {"lat": -12.0474789, "lng": -75.1990181}, "height": 1, "color": "rgba(0,255,0,1)"}, {"hoverLabel": "CREAPOLIS Makerspace", "pos": {"lat": 50.2585, "lng": 10.9579}, "height": 1, "color": "rgba(0,255,0,1)"}, {"hoverLabel": "Maker Auto", "pos": {"lat": 19.1198711, "lng": 72.8753385}, "height": 1, "color": "rgba(0,255,0,1)"}, {"hoverLabel": "Fab Lab Liverpool", "pos": {"lat": 53.4050929, "lng": -2.9703196}, "height": 1, "color": "rgba(0,255,0,1)"}, {"hoverLabel": "Fab Lab Juarez ", "pos": {"lat": 31.745403, "lng": -106.44863}, "height": 1, "color": "rgba(0,255,0,1)"}, {"hoverLabel": "FabLab Universitario CIDi", "pos": {"lat": -25.3360614, "lng": -57.5116656}, "height": 1, "color": "rgba(0,255,0,1)"}, {"hoverLabel": "Mranti MakersLab", "pos": {"lat": 3.1412, "lng": 101.68653}, "height": 1, "color": "rgba(0,255,0,1)"}, {"hoverLabel": "L'ETABLI", "pos": {"lat": 43.7487155, "lng": -1.32567730000005}, "height": 1, "color": "rgba(0,255,0,1)"}, {"hoverLabel": "FAU College of Engineering and Computer Science Fab Lab", "pos": {"lat": 26.3738125, "lng": -80.1019375}, "height": 1, "color": "rgba(0,255,0,1)"}, {"hoverLabel": "Polifactory", "pos": {"lat": 45.5041898, "lng": 9.16413020000005}, "height": 1, "color": "rgba(0,255,0,1)"}, {"hoverLabel": "Camion Num\u00e9rique", "pos": {"lat": 44.050188, "lng": 5.044427}, "height": 1, "color": "rgba(0,255,0,1)"}, {"hoverLabel": "Batch Space", "pos": {"lat": 51.5324093, "lng": -0.0561050999999679}, "height": 1, "color": "rgba(0,255,0,1)"}, {"hoverLabel": "Wabeno Fab Lab", "pos": {"lat": 45.4391632, "lng": -88.658847}, "height": 1, "color": "rgba(0,255,0,1)"}, {"hoverLabel": "FABLAB MANTOVA", "pos": {"lat": 45.1596434, "lng": 10.8221559}, "height": 1, "color": "rgba(0,255,0,1)"}, {"hoverLabel": "LabHIdouille", "pos": {"lat": 47.750839, "lng": 7.335888}, "height": 1, "color": "rgba(0,255,0,1)"}, {"hoverLabel": "Fablab Riviera", "pos": {"lat": 46.4589623, "lng": 6.8533782}, "height": 1, "color": "rgba(0,255,0,1)"}, {"hoverLabel": "FEB 360\u00ba", "pos": {"lat": -20.5747209, "lng": -48.560379}, "height": 1, "color": "rgba(0,255,0,1)"}, {"hoverLabel": "Plus Portogruaro", "pos": {"lat": 45.7829942, "lng": 12.7908256}, "height": 1, "color": "rgba(0,255,0,1)"}, {"hoverLabel": "Fab Lab Puebla", "pos": {"lat": 19.0312453, "lng": -98.2425595}, "height": 1, "color": "rgba(0,255,0,1)"}, {"hoverLabel": "Fablab Saint-L\u00f4 Agglo", "pos": {"lat": 49.1012178, "lng": -1.0790195}, "height": 1, "color": "rgba(0,255,0,1)"}, {"hoverLabel": "Fablab Jogja", "pos": {"lat": -7.8508502, "lng": 110.1541511}, "height": 1, "color": "rgba(0,255,0,1)"}, {"hoverLabel": "KIET TBI PRAYAS SHALA FabLab", "pos": {"lat": 28.7528565, "lng": 77.4976432}, "height": 1, "color": "rgba(0,255,0,1)"}, {"hoverLabel": "FAB LAB NOLA at Delgado Community College", "pos": {"lat": 29.9871999, "lng": -90.1049096}, "height": 1, "color": "rgba(0,255,0,1)"}, {"hoverLabel": "matrixFabLab", "pos": {"lat": 51.2269505, "lng": 6.8887558}, "height": 1, "color": "rgba(0,255,0,1)"}, {"hoverLabel": "I.O.Me005", "pos": {"lat": -2.1767894, "lng": 40.8146311}, "height": 1, "color": "rgba(0,255,0,1)"}, {"hoverLabel": "FabLab Castelo Branco", "pos": {"lat": 39.8145942056794, "lng": -7.50716284955138}, "height": 1, "color": "rgba(0,255,0,1)"}, {"hoverLabel": "Happylab Salzburg", "pos": {"lat": 47.8229307, "lng": 13.0423647}, "height": 1, "color": "rgba(0,255,0,1)"}, {"hoverLabel": "Growlab", "pos": {"lat": 44.8692291, "lng": 10.0743198}, "height": 1, "color": "rgba(0,255,0,1)"}, {"hoverLabel": "FabLab Valsamoggia", "pos": {"lat": 44.4705138, "lng": 11.1008631}, "height": 1, "color": "rgba(0,255,0,1)"}, {"hoverLabel": "COlab", "pos": {"lat": 48.543774, "lng": -71.652021}, "height": 1, "color": "rgba(0,255,0,1)"}, {"hoverLabel": "Smarteducationlab fablab Lecce", "pos": {"lat": 40.3361762, "lng": 18.1220126000001}, "height": 1, "color": "rgba(0,255,0,1)"}, {"hoverLabel": "Basque fab Lab ( power by Denokinn)", "pos": {"lat": 43.3200563, "lng": -3.04562920000001}, "height": 1, "color": "rgba(0,255,0,1)"}, {"hoverLabel": "LURLAB Ataun", "pos": {"lat": 42.9791630495307, "lng": -2.18155377011414}, "height": 1, "color": "rgba(0,255,0,1)"}, {"hoverLabel": "Le Lab'", "pos": {"lat": 46.2088125, "lng": 5.2318125}, "height": 1, "color": "rgba(0,255,0,1)"}, {"hoverLabel": "Creaticity FabLab", "pos": {"lat": 43.2124032, "lng": 13.2836903}, "height": 1, "color": "rgba(0,255,0,1)"}, {"hoverLabel": "FacLab\u00ae numixs", "pos": {"lat": 48.9752, "lng": 2.376593}, "height": 1, "color": "rgba(0,255,0,1)"}, {"hoverLabel": "TRAKK", "pos": {"lat": 50.463751, "lng": 4.85115799999994}, "height": 1, "color": "rgba(0,255,0,1)"}, {"hoverLabel": "Fab Lab Bali", "pos": {"lat": -8.7931195, "lng": 115.1501316}, "height": 1, "color": "rgba(0,255,0,1)"}, {"hoverLabel": "MASTIC", "pos": {"lat": 45.194181, "lng": 5.77019940000002}, "height": 1, "color": "rgba(0,255,0,1)"}, {"hoverLabel": "CITC FabLab", "pos": {"lat": 61.2108446650145, "lng": -149.810683623279}, "height": 1, "color": "rgba(0,255,0,1)"}, {"hoverLabel": "CUSAT FABLAB", "pos": {"lat": 10.0243, "lng": 76.3053}, "height": 1, "color": "rgba(0,255,0,1)"}, {"hoverLabel": "Nodelab Guidonia Montecelio", "pos": {"lat": 41.964667, "lng": 12.7610082}, "height": 1, "color": "rgba(0,255,0,1)"}, {"hoverLabel": "ElobourFabLab", "pos": {"lat": 30.2283182, "lng": 31.4798657}, "height": 1, "color": "rgba(0,255,0,1)"}, {"hoverLabel": "Fablab UTMN", "pos": {"lat": 57.158357, "lng": 65.527772}, "height": 1, "color": "rgba(0,255,0,1)"}, {"hoverLabel": "Industrial Studio ", "pos": {"lat": -35.4232444, "lng": -71.6484804}, "height": 1, "color": "rgba(0,255,0,1)"}, {"hoverLabel": "FabLab Cuiab\u00e1-BR", "pos": {"lat": -23.4718943, "lng": -47.4318352}, "height": 1, "color": "rgba(0,255,0,1)"}, {"hoverLabel": "Tanzania Open Innovation Organisation (TOIO)", "pos": {"lat": -5.086574, "lng": 39.1154633}, "height": 1, "color": "rgba(0,255,0,1)"}, {"hoverLabel": "FABLAB WINAM", "pos": {"lat": -0.0768085, "lng": 34.7925762}, "height": 1, "color": "rgba(0,255,0,1)"}, {"hoverLabel": "CULTURE NUMERIQUE", "pos": {"lat": 48.6924498, "lng": 2.4329957}, "height": 1, "color": "rgba(0,255,0,1)"}, {"hoverLabel": "Fablab Jababeka", "pos": {"lat": -6.2826352, "lng": 107.1770823}, "height": 1, "color": "rgba(0,255,0,1)"}, {"hoverLabel": "MakersAcademy ", "pos": {"lat": 29.3472128, "lng": 48.0862823}, "height": 1, "color": "rgba(0,255,0,1)"}, {"hoverLabel": "UValladolid", "pos": {"lat": 41.6627809, "lng": -4.70536459999994}, "height": 1, "color": "rgba(0,255,0,1)"}, {"hoverLabel": "fablabUDLA", "pos": {"lat": -0.1672623, "lng": -78.4726324}, "height": 1, "color": "rgba(0,255,0,1)"}, {"hoverLabel": "IN-HUB P\u0159erov", "pos": {"lat": 49.4545003, "lng": 17.4487806}, "height": 1, "color": "rgba(0,255,0,1)"}, {"hoverLabel": "Fab Lab \"Club for Young Technicians\"", "pos": {"lat": 54.844098, "lng": 83.11388}, "height": 1, "color": "rgba(0,255,0,1)"}, {"hoverLabel": "DeVinci Fablab", "pos": {"lat": 48.8958829, "lng": 2.23639000000003}, "height": 1, "color": "rgba(0,255,0,1)"}, {"hoverLabel": "FabLab Frosinone ", "pos": {"lat": 41.6406306, "lng": 13.3480333}, "height": 1, "color": "rgba(0,255,0,1)"}, {"hoverLabel": "Marin Country Day School - Makers' Lab", "pos": {"lat": 37.9198036, "lng": -122.4913655}, "height": 1, "color": "rgba(0,255,0,1)"}, {"hoverLabel": "Fablab Shenzhen - Shenzhen Open Innovation Lab", "pos": {"lat": 22.5098094260226, "lng": 114.054823167984}, "height": 1, "color": "rgba(0,255,0,1)"}, {"hoverLabel": "Fab Lab - La Casemate", "pos": {"lat": 45.1975644, "lng": 5.73215149999999}, "height": 1, "color": "rgba(0,255,0,1)"}, {"hoverLabel": "C -Fabrication Laboratory", "pos": {"lat": 30.6270318, "lng": 104.0765348}, "height": 1, "color": "rgba(0,255,0,1)"}, {"hoverLabel": "FabLab Qingdao", "pos": {"lat": 36.0717968, "lng": 120.3187793}, "height": 1, "color": "rgba(0,255,0,1)"}, {"hoverLabel": "Fab Lab Sevilla / Escuela Tecnica Superior de Arquitectura Universidad de Sevilla", "pos": {"lat": 37.362274, "lng": -5.9866796}, "height": 1, "color": "rgba(0,255,0,1)"}, {"hoverLabel": "Mackenzie Campinas", "pos": {"lat": -22.8857065, "lng": -47.0686067}, "height": 1, "color": "rgba(0,255,0,1)"}, {"hoverLabel": "HiCET Fab Labz", "pos": {"lat": 10.0667, "lng": 76.2833}, "height": 1, "color": "rgba(0,255,0,1)"}, {"hoverLabel": "BricoLab", "pos": {"lat": 48.984592, "lng": 2.34115}, "height": 1, "color": "rgba(0,255,0,1)"}, {"hoverLabel": "Miocugino - officina di gesta e ingegno", "pos": {"lat": 45.4480315, "lng": 9.16862330000004}, "height": 1, "color": "rgba(0,255,0,1)"}, {"hoverLabel": "Fablab Pesaro", "pos": {"lat": 43.85626, "lng": 12.8217099999999}, "height": 1, "color": "rgba(0,255,0,1)"}, {"hoverLabel": "FabLab Sarajevo", "pos": {"lat": 43.8568075, "lng": 18.395775}, "height": 1, "color": "rgba(0,255,0,1)"}, {"hoverLabel": "Mini Fablab Kerala SNGCE", "pos": {"lat": 10.0082454, "lng": 76.4531051}, "height": 1, "color": "rgba(0,255,0,1)"}, {"hoverLabel": "FabLab Matane", "pos": {"lat": 48.8408412, "lng": -67.4968537}, "height": 1, "color": "rgba(0,255,0,1)"}, {"hoverLabel": "Moonlighter FabLab", "pos": {"lat": 25.7963503, "lng": -80.198305}, "height": 1, "color": "rgba(0,255,0,1)"}, {"hoverLabel": "Haystack Fab Lab", "pos": {"lat": 44.1888824, "lng": -68.5844926}, "height": 1, "color": "rgba(0,255,0,1)"}, {"hoverLabel": "Frontier3D", "pos": {"lat": -32.0418366, "lng": 115.8804607}, "height": 1, "color": "rgba(0,255,0,1)"}, {"hoverLabel": "FablabFHA", "pos": {"lat": -20.0160177, "lng": -44.0852232}, "height": 1, "color": "rgba(0,255,0,1)"}, {"hoverLabel": "HET LAB Rotterdam", "pos": {"lat": 51.9244201, "lng": 4.4777325}, "height": 1, "color": "rgba(0,255,0,1)"}, {"hoverLabel": "FabLab Senai-UEMS", "pos": {"lat": -22.2584169, "lng": -54.800352}, "height": 1, "color": "rgba(0,255,0,1)"}, {"hoverLabel": "Fab Lab Berlin", "pos": {"lat": 52.52953, "lng": 13.4175700000001}, "height": 1, "color": "rgba(0,255,0,1)"}, {"hoverLabel": "Aegean Idea Lab", "pos": {"lat": 37.0684625, "lng": 25.2601015}, "height": 1, "color": "rgba(0,255,0,1)"}, {"hoverLabel": "Fablab Gearbox", "pos": {"lat": -1.3020349, "lng": 36.8379325}, "height": 1, "color": "rgba(0,255,0,1)"}, {"hoverLabel": "Farab FabLab", "pos": {"lat": 43.33333, "lng": 68.25}, "height": 1, "color": "rgba(0,255,0,1)"}, {"hoverLabel": "D\u00e8mosLab", "pos": {"lat": 45.0575432, "lng": -72.8422952}, "height": 1, "color": "rgba(0,255,0,1)"}, {"hoverLabel": "UTArlington FabLab", "pos": {"lat": 32.7301006, "lng": -97.1122422}, "height": 1, "color": "rgba(0,255,0,1)"}, {"hoverLabel": "Fablab Solidaire Orange Digital Center Maroc", "pos": {"lat": 34.01325, "lng": -6.83255}, "height": 1, "color": "rgba(0,255,0,1)"}, {"hoverLabel": "Super Fablab Kerala", "pos": {"lat": 10.0551984, "lng": 76.3546161}, "height": 1, "color": "rgba(0,255,0,1)"}, {"hoverLabel": "DronesLab", "pos": {"lat": 50.4108609852, "lng": 4.45153226085199}, "height": 1, "color": "rgba(0,255,0,1)"}, {"hoverLabel": "ruralIrelandLabs", "pos": {"lat": 53.94694, "lng": -8.09}, "height": 1, "color": "rgba(0,255,0,1)"}, {"hoverLabel": "Innovation Lab FHWN", "pos": {"lat": 47.8381677, "lng": 16.2506713}, "height": 1, "color": "rgba(0,255,0,1)"}, {"hoverLabel": "Fab Lab Atlantic", "pos": {"lat": 46.2582893, "lng": -63.1408303}, "height": 1, "color": "rgba(0,255,0,1)"}, {"hoverLabel": "Club ATP Lab", "pos": {"lat": -32.4087389, "lng": -63.2539577}, "height": 1, "color": "rgba(0,255,0,1)"}, {"hoverLabel": "ZAM", "pos": {"lat": 49.5999715, "lng": 11.0028326}, "height": 1, "color": "rgba(0,255,0,1)"}, {"hoverLabel": "EigerMaker - Makerspace & FabLab Berner Oberland", "pos": {"lat": 46.692313, "lng": 7.8765845}, "height": 1, "color": "rgba(0,255,0,1)"}, {"hoverLabel": "FabLab Lazio Colleferro", "pos": {"lat": 41.7308616, "lng": 13.0040869}, "height": 1, "color": "rgba(0,255,0,1)"}, {"hoverLabel": "Station K - Fablab Kourou", "pos": {"lat": 5.155917, "lng": -52.639923}, "height": 1, "color": "rgba(0,255,0,1)"}, {"hoverLabel": "L'Atelier du PlayLab", "pos": {"lat": 43.5614071, "lng": 1.50189820000003}, "height": 1, "color": "rgba(0,255,0,1)"}, {"hoverLabel": "Workbench Projects", "pos": {"lat": 12.9765123261232, "lng": 77.6265611465576}, "height": 1, "color": "rgba(0,255,0,1)"}, {"hoverLabel": "M\u00e9diath\u00e8que Les Carmes (Coop fablab) ", "pos": {"lat": 43.6935137, "lng": 5.5037294}, "height": 1, "color": "rgba(0,255,0,1)"}, {"hoverLabel": "BeeLab - Laborat\u00f3rio de Fabrica\u00e7\u00e3o Digital do Parque Tecnol\u00f3gico Jata\u00ed", "pos": {"lat": -17.9250326, "lng": -51.7160848}, "height": 1, "color": "rgba(0,255,0,1)"}, {"hoverLabel": "FabLabASB", "pos": {"lat": 3.155337, "lng": 101.6922874}, "height": 1, "color": "rgba(0,255,0,1)"}, {"hoverLabel": "Fabrik@Boom", "pos": {"lat": 44.756615, "lng": -0.694389}, "height": 1, "color": "rgba(0,255,0,1)"}, {"hoverLabel": "Fablab Centro TICS", "pos": {"lat": 14.6258739, "lng": -90.5132323}, "height": 1, "color": "rgba(0,255,0,1)"}, {"hoverLabel": "LAB-LOB ", "pos": {"lat": 40.3476253, "lng": -3.6962689}, "height": 1, "color": "rgba(0,255,0,1)"}, {"hoverLabel": "CODA FabLab Apeldoorn", "pos": {"lat": 52.2155005, "lng": 5.9584261}, "height": 1, "color": "rgba(0,255,0,1)"}, {"hoverLabel": "Fab LAB Newton", "pos": {"lat": -19.9661541, "lng": -43.9631832}, "height": 1, "color": "rgba(0,255,0,1)"}, {"hoverLabel": "Emanuel School Fab Lab", "pos": {"lat": -33.9181612, "lng": 151.2459044}, "height": 1, "color": "rgba(0,255,0,1)"}, {"hoverLabel": "IdeaLab", "pos": {"lat": -29.2031259, "lng": -51.3489849}, "height": 1, "color": "rgba(0,255,0,1)"}, {"hoverLabel": "La Machinerie", "pos": {"lat": 49.8921395, "lng": 2.30871830000001}, "height": 1, "color": "rgba(0,255,0,1)"}, {"hoverLabel": "Fab Lab Libya ", "pos": {"lat": 32.0793196, "lng": 20.0710884}, "height": 1, "color": "rgba(0,255,0,1)"}, {"hoverLabel": "FAB LAB GAMT", "pos": {"lat": -23.1071378, "lng": -45.7014437}, "height": 1, "color": "rgba(0,255,0,1)"}, {"hoverLabel": "F@bRiquet", "pos": {"lat": 43.5510051, "lng": 1.48827649999998}, "height": 1, "color": "rgba(0,255,0,1)"}, {"hoverLabel": "FabLab Maadi STEM School", "pos": {"lat": 29.9636527382043, "lng": 31.311387299128}, "height": 1, "color": "rgba(0,255,0,1)"}, {"hoverLabel": "/dev/tal e.V.", "pos": {"lat": 51.26659, "lng": 7.14499999999998}, "height": 1, "color": "rgba(0,255,0,1)"}, {"hoverLabel": "Fab Lab Daejeon", "pos": {"lat": 36.355539, "lng": 127.3677516}, "height": 1, "color": "rgba(0,255,0,1)"}, {"hoverLabel": "Le L@bo, coeur num\u00e9rique de Fourmies", "pos": {"lat": 50.016142, "lng": 4.046575}, "height": 1, "color": "rgba(0,255,0,1)"}, {"hoverLabel": "Les Fabriques du Ponant", "pos": {"lat": 48.408477, "lng": -4.4980018}, "height": 1, "color": "rgba(0,255,0,1)"}, {"hoverLabel": "Utopiawerkstadt", "pos": {"lat": 51.2668725, "lng": 7.14538689999995}, "height": 1, "color": "rgba(0,255,0,1)"}, {"hoverLabel": "Studio 5t", "pos": {"lat": 41.9007003, "lng": 12.4689874}, "height": 1, "color": "rgba(0,255,0,1)"}, {"hoverLabel": "Lincoln FabLab", "pos": {"lat": 40.0164585, "lng": -82.8655535}, "height": 1, "color": "rgba(0,255,0,1)"}, {"hoverLabel": "PRONTO 3D Chapec\u00f3", "pos": {"lat": -27, "lng": -50}, "height": 1, "color": "rgba(0,255,0,1)"}, {"hoverLabel": "HOMEMAKERS", "pos": {"lat": 48.8378142, "lng": 2.30475569999999}, "height": 1, "color": "rgba(0,255,0,1)"}, {"hoverLabel": "Paranda", "pos": {"lat": 58.3709475, "lng": 26.7157279}, "height": 1, "color": "rgba(0,255,0,1)"}, {"hoverLabel": "FabLab Bremen", "pos": {"lat": 53.0792962, "lng": 8.80169369999999}, "height": 1, "color": "rgba(0,255,0,1)"}, {"hoverLabel": "DOGO FABLAB", "pos": {"lat": 36.73812, "lng": 126.90288}, "height": 1, "color": "rgba(0,255,0,1)"}, {"hoverLabel": "FabLab SUPSI ", "pos": {"lat": 46.0357017, "lng": 8.96615499999996}, "height": 1, "color": "rgba(0,255,0,1)"}, {"hoverLabel": "Trinity-Area Middle School Fab Lab", "pos": {"lat": 40.1488229, "lng": -80.2642625}, "height": 1, "color": "rgba(0,255,0,1)"}, {"hoverLabel": "SynergyMill", "pos": {"lat": 34.8494539, "lng": -82.414767}, "height": 1, "color": "rgba(0,255,0,1)"}, {"hoverLabel": "SCI - FABLAB MAGURELE", "pos": {"lat": 44.3499663, "lng": 26.031042}, "height": 1, "color": "rgba(0,255,0,1)"}, {"hoverLabel": "VEO", "pos": {"lat": -12.0687867, "lng": -77.0780111}, "height": 1, "color": "rgba(0,255,0,1)"}, {"hoverLabel": "Fab Lab Passo Fundo", "pos": {"lat": -28.2541778, "lng": -52.3959625}, "height": 1, "color": "rgba(0,255,0,1)"}, {"hoverLabel": "Fab Lab Kambsdalur", "pos": {"lat": 62.2197084, "lng": -6.80984579999995}, "height": 1, "color": "rgba(0,255,0,1)"}, {"hoverLabel": "FabLab Vosges", "pos": {"lat": 48.280969638864, "lng": 6.94815979577027}, "height": 1, "color": "rgba(0,255,0,1)"}, {"hoverLabel": "FAB LAB LIVRE SP CENTRO CULTURAL S\u00c3O PAULO", "pos": {"lat": -23.5714751, "lng": -46.6402144}, "height": 1, "color": "rgba(0,255,0,1)"}, {"hoverLabel": "POMlab", "pos": {"lat": 44.555452, "lng": 7.73654299999998}, "height": 1, "color": "rgba(0,255,0,1)"}, {"hoverLabel": "Fabcafe Bangkok", "pos": {"lat": 13.7800228, "lng": 100.5423633}, "height": 1, "color": "rgba(0,255,0,1)"}, {"hoverLabel": "FAB LAB LIVRE SP CEU TR\u00caS PONTES ", "pos": {"lat": -23.478372, "lng": -46.3813019}, "height": 1, "color": "rgba(0,255,0,1)"}, {"hoverLabel": "FAB LAB LIVRE SP CEU HELI\u00d3POLIS", "pos": {"lat": -23.6221722, "lng": -46.5907948}, "height": 1, "color": "rgba(0,255,0,1)"}, {"hoverLabel": "FAB LAB LIVRE SP CH\u00c1CARA DO JOCKEY", "pos": {"lat": -23.598009, "lng": -46.744681}, "height": 1, "color": "rgba(0,255,0,1)"}, {"hoverLabel": "FabLab Makerspace Rheinfelden", "pos": {"lat": 47.549339, "lng": 7.77408760000003}, "height": 1, "color": "rgba(0,255,0,1)"}, {"hoverLabel": "The Chase Innovation Lab", "pos": {"lat": 41.9181631, "lng": -87.6943465}, "height": 1, "color": "rgba(0,255,0,1)"}, {"hoverLabel": "Eco FabLab MDesign", "pos": {"lat": 49.1262692, "lng": 6.18208600000003}, "height": 1, "color": "rgba(0,255,0,1)"}, {"hoverLabel": "FAB LAB LIVRE SP CEU ANHANGUERA", "pos": {"lat": -23.4397843, "lng": -46.7871379}, "height": 1, "color": "rgba(0,255,0,1)"}, {"hoverLabel": "FAB LAB LIVRE SP VILA ITOROR\u00d3", "pos": {"lat": -23.561983, "lng": -46.6410815}, "height": 1, "color": "rgba(0,255,0,1)"}, {"hoverLabel": "Sanku Lab", "pos": {"lat": 9.550278, "lng": -13.672011}, "height": 1, "color": "rgba(0,255,0,1)"}, {"hoverLabel": "Lab86", "pos": {"lat": 48.8551607, "lng": 2.3920183}, "height": 1, "color": "rgba(0,255,0,1)"}, {"hoverLabel": "LESPACEMAKER", "pos": {"lat": 45.539221, "lng": -73.556652}, "height": 1, "color": "rgba(0,255,0,1)"}, {"hoverLabel": "FABLAB BLEST GANA", "pos": {"lat": -33.5196125, "lng": -70.6381538}, "height": 1, "color": "rgba(0,255,0,1)"}, {"hoverLabel": "Fab Lab - C\u00e9gep Limoilou", "pos": {"lat": 46.8217058, "lng": -71.2258425}, "height": 1, "color": "rgba(0,255,0,1)"}, {"hoverLabel": "Vectorealism FabLab", "pos": {"lat": 45.4379769, "lng": 9.2320264}, "height": 1, "color": "rgba(0,255,0,1)"}, {"hoverLabel": "Station K", "pos": {"lat": 5.1603161, "lng": -52.64808}, "height": 1, "color": "rgba(0,255,0,1)"}, {"hoverLabel": "PL Fablab KSA", "pos": {"lat": 24.7659467, "lng": 46.6616079}, "height": 1, "color": "rgba(0,255,0,1)"}, {"hoverLabel": "Agency of innovation ", "pos": {"lat": 57.005064, "lng": 40.9766540000001}, "height": 1, "color": "rgba(0,255,0,1)"}, {"hoverLabel": "FAB LAB LIVRE SP CENTRO CULTURAL DA JUVENTUDE", "pos": {"lat": -23.4759241475499, "lng": -46.6704159883606}, "height": 1, "color": "rgba(0,255,0,1)"}, {"hoverLabel": "Fab Lab - Entrepreneurship and Innovation Center - University of Tripoli", "pos": {"lat": 32.87519, "lng": 13.18746}, "height": 1, "color": "rgba(0,255,0,1)"}, {"hoverLabel": " FABLAB Hamamatsu", "pos": {"lat": 34.7107782, "lng": 137.7261082}, "height": 1, "color": "rgba(0,255,0,1)"}, {"hoverLabel": "KAIST Idea Factory", "pos": {"lat": 36.3707172, "lng": 127.3573506}, "height": 1, "color": "rgba(0,255,0,1)"}, {"hoverLabel": "Fab Research Yokohama (Keio University)", "pos": {"lat": 35.4425629, "lng": 139.6413436}, "height": 1, "color": "rgba(0,255,0,1)"}, {"hoverLabel": "Fab Lab NURIS", "pos": {"lat": 51.0939211, "lng": 71.3987458}, "height": 1, "color": "rgba(0,255,0,1)"}, {"hoverLabel": "Mini FabLab MakerHousehold", "pos": {"lat": 52.226384165947, "lng": 6.92235958888546}, "height": 1, "color": "rgba(0,255,0,1)"}, {"hoverLabel": "Fab Lab Sunderland", "pos": {"lat": 54.9057755, "lng": -1.39069730000006}, "height": 1, "color": "rgba(0,255,0,1)"}, {"hoverLabel": "Erbil Makers Hub", "pos": {"lat": 36.2008343, "lng": 44.0316614}, "height": 1, "color": "rgba(0,255,0,1)"}, {"hoverLabel": "American Center Korea", "pos": {"lat": 37.5400028, "lng": 126.9734657}, "height": 1, "color": "rgba(0,255,0,1)"}, {"hoverLabel": "MakerHouse RI:UM", "pos": {"lat": 35.8710374, "lng": 128.5880089}, "height": 1, "color": "rgba(0,255,0,1)"}, {"hoverLabel": "Fablab Unitec", "pos": {"lat": 14.0480869, "lng": -87.1741245}, "height": 1, "color": "rgba(0,255,0,1)"}, {"hoverLabel": "RuTech FabLab MJC Rodez", "pos": {"lat": 44.3532319, "lng": 2.57828429999995}, "height": 1, "color": "rgba(0,255,0,1)"}, {"hoverLabel": "FabLab19", "pos": {"lat": 45.1548195, "lng": 1.50903740000001}, "height": 1, "color": "rgba(0,255,0,1)"}, {"hoverLabel": "Innovation Lab for Operations", "pos": {"lat": 32.2181727, "lng": -7.9356577}, "height": 1, "color": "rgba(0,255,0,1)"}, {"hoverLabel": "Berea Makerspace", "pos": {"lat": 37.5713935, "lng": -84.3179825}, "height": 1, "color": "rgba(0,255,0,1)"}, {"hoverLabel": "Space NV", "pos": {"lat": 55.7095889, "lng": 12.5217593}, "height": 1, "color": "rgba(0,255,0,1)"}, {"hoverLabel": "FabLab Liepaja", "pos": {"lat": 56.5022605, "lng": 21.0128684}, "height": 1, "color": "rgba(0,255,0,1)"}, {"hoverLabel": "Bright Up", "pos": {"lat": 26.216738, "lng": 50.1982705}, "height": 1, "color": "rgba(0,255,0,1)"}, {"hoverLabel": "Fab Lab Escola SESI - Mar\u00edlia", "pos": {"lat": -22.2411623, "lng": -49.9269889}, "height": 1, "color": "rgba(0,255,0,1)"}, {"hoverLabel": "FabLab - OCTT Gomel ", "pos": {"lat": 52, "lng": 30}, "height": 1, "color": "rgba(0,255,0,1)"}, {"hoverLabel": "Ingenio Triana", "pos": {"lat": 37.3777244, "lng": -6.00369350000005}, "height": 1, "color": "rgba(0,255,0,1)"}, {"hoverLabel": "Fab Lab Escola SESI - Ourinhos", "pos": {"lat": -22.9631857339767, "lng": -49.8871467530396}, "height": 1, "color": "rgba(0,255,0,1)"}, {"hoverLabel": "FunLab Tours", "pos": {"lat": 47.3932037, "lng": 0.668742100000031}, "height": 1, "color": "rgba(0,255,0,1)"}, {"hoverLabel": "Soddy Daisy Middle School Volkswagen eLab", "pos": {"lat": 35.2632357, "lng": -85.17159}, "height": 1, "color": "rgba(0,255,0,1)"}, {"hoverLabel": "Fab Lab Escola SESI - Vila Leopoldina", "pos": {"lat": -23.5276541, "lng": -46.7293114}, "height": 1, "color": "rgba(0,255,0,1)"}, {"hoverLabel": "Envite Design Lab", "pos": {"lat": 40.2551596, "lng": -82.8887289}, "height": 1, "color": "rgba(0,255,0,1)"}, {"hoverLabel": "MontreaLab", "pos": {"lat": 45.5512607, "lng": -73.5389411}, "height": 1, "color": "rgba(0,255,0,1)"}, {"hoverLabel": "Lake Mac Libraries Fab Lab", "pos": {"lat": -33.0919843, "lng": 151.6373921}, "height": 1, "color": "rgba(0,255,0,1)"}, {"hoverLabel": "Fab Lab Escola SESI - Mau\u00e1", "pos": {"lat": -23.6632519, "lng": -46.4492663}, "height": 1, "color": "rgba(0,255,0,1)"}, {"hoverLabel": "Herefordshire FabLab", "pos": {"lat": 52.1173547, "lng": -2.46818469999994}, "height": 1, "color": "rgba(0,255,0,1)"}, {"hoverLabel": "Fablab Marrakech", "pos": {"lat": 31.26365, "lng": -8.84411}, "height": 1, "color": "rgba(0,255,0,1)"}, {"hoverLabel": "Fab Lab Escola SESI - Jundia\u00ed", "pos": {"lat": -23.1784277, "lng": -46.8975701}, "height": 1, "color": "rgba(0,255,0,1)"}, {"hoverLabel": "Luz'In", "pos": {"lat": 45.5640944, "lng": 5.4368477}, "height": 1, "color": "rgba(0,255,0,1)"}, {"hoverLabel": "Mediterranean Fab Lab", "pos": {"lat": 40.7052988160927, "lng": 14.7052032485016}, "height": 1, "color": "rgba(0,255,0,1)"}, {"hoverLabel": "Matusa FabLab Sciacca", "pos": {"lat": 37.5072399, "lng": 13.0817278}, "height": 1, "color": "rgba(0,255,0,1)"}, {"hoverLabel": "kalubyaFaLab", "pos": {"lat": 30.2283408, "lng": 31.4798948}, "height": 1, "color": "rgba(0,255,0,1)"}, {"hoverLabel": "FAZLAB", "pos": {"lat": -7.88806, "lng": 110.32889}, "height": 1, "color": "rgba(0,255,0,1)"}, {"hoverLabel": "Fab Lab Escola SESI - Diadema", "pos": {"lat": -23.6696638, "lng": -46.6163067}, "height": 1, "color": "rgba(0,255,0,1)"}, {"hoverLabel": "FABLAB CASABLANCA", "pos": {"lat": 33.6179024, "lng": -7.48517040000002}, "height": 1, "color": "rgba(0,255,0,1)"}, {"hoverLabel": "Fab Lab Escola SESI - Ipiranga ", "pos": {"lat": -23.5824375, "lng": -46.6080625}, "height": 1, "color": "rgba(0,255,0,1)"}, {"hoverLabel": "FabLab Solidaire Mamiratra", "pos": {"lat": -18.9107003, "lng": 47.5429812}, "height": 1, "color": "rgba(0,255,0,1)"}, {"hoverLabel": "FabLab Guldborgsund", "pos": {"lat": 54.769851, "lng": 11.8702900000001}, "height": 1, "color": "rgba(0,255,0,1)"}, {"hoverLabel": "cityfab 2", "pos": {"lat": 50.8729639, "lng": 4.4156246}, "height": 1, "color": "rgba(0,255,0,1)"}, {"hoverLabel": "SYN FAB LAB", "pos": {"lat": 37.9866713, "lng": 23.7457878}, "height": 1, "color": "rgba(0,255,0,1)"}, {"hoverLabel": "ISTIALAB", "pos": {"lat": 47.4786118, "lng": -0.563716500000055}, "height": 1, "color": "rgba(0,255,0,1)"}, {"hoverLabel": "Copenhagen Fablab", "pos": {"lat": 55.6609769, "lng": 12.5184027}, "height": 1, "color": "rgba(0,255,0,1)"}, {"hoverLabel": "FabLab Onaki", "pos": {"lat": 45.4254189, "lng": -75.7179118}, "height": 1, "color": "rgba(0,255,0,1)"}, {"hoverLabel": "Fablab Micro Folie Evreux", "pos": {"lat": 49.0256479, "lng": 1.172071}, "height": 1, "color": "rgba(0,255,0,1)"}, {"hoverLabel": "MakersBox", "pos": {"lat": 28.5216495, "lng": 77.2769362}, "height": 1, "color": "rgba(0,255,0,1)"}, {"hoverLabel": "Urban Workshop", "pos": {"lat": 33.6664939, "lng": -117.8786685}, "height": 1, "color": "rgba(0,255,0,1)"}, {"hoverLabel": "La Shop", "pos": {"lat": 48.8035736, "lng": -79.2049789}, "height": 1, "color": "rgba(0,255,0,1)"}, {"hoverLabel": "Vancouver Hack Space", "pos": {"lat": 49.2769504, "lng": -123.0725879}, "height": 1, "color": "rgba(0,255,0,1)"}, {"hoverLabel": "Fablab du Chalonnais", "pos": {"lat": 46.7886368, "lng": 4.8353631}, "height": 1, "color": "rgba(0,255,0,1)"}, {"hoverLabel": "Fablab SV (El Salvador)", "pos": {"lat": 13.6933874, "lng": -89.2354686}, "height": 1, "color": "rgba(0,255,0,1)"}, {"hoverLabel": "Howard Connect Academy Invention Collaboratory", "pos": {"lat": 35.0265392860112, "lng": -85.3091383544922}, "height": 1, "color": "rgba(0,255,0,1)"}, {"hoverLabel": "Fablab DroneGo", "pos": {"lat": -12.789151, "lng": 45.109788}, "height": 1, "color": "rgba(0,255,0,1)"}, {"hoverLabel": "Kivu group corporation ", "pos": {"lat": -2.5123017, "lng": 28.8480284}, "height": 1, "color": "rgba(0,255,0,1)"}, {"hoverLabel": "Lisungi Fablab", "pos": {"lat": -4.3117345, "lng": 15.3036025}, "height": 1, "color": "rgba(0,255,0,1)"}, {"hoverLabel": "FAB LAB SANTA CRUZ", "pos": {"lat": -17.7743563, "lng": -63.1925824}, "height": 1, "color": "rgba(0,255,0,1)"}, {"hoverLabel": "FAB Newport", "pos": {"lat": 41.4901024, "lng": -71.3128285}, "height": 1, "color": "rgba(0,255,0,1)"}, {"hoverLabel": "La Fabulerie", "pos": {"lat": 43.2953058, "lng": 5.38385859999994}, "height": 1, "color": "rgba(0,255,0,1)"}, {"hoverLabel": "FabLab de Graulhet", "pos": {"lat": 43.7598613, "lng": 1.9694754}, "height": 1, "color": "rgba(0,255,0,1)"}, {"hoverLabel": "La Fabrique", "pos": {"lat": 45.4004365, "lng": -71.8964307}, "height": 1, "color": "rgba(0,255,0,1)"}, {"hoverLabel": "FabLab SENDAI", "pos": {"lat": 38.2587774, "lng": 140.8750367}, "height": 1, "color": "rgba(0,255,0,1)"}, {"hoverLabel": "Fabinnov Lab_ir", "pos": {"lat": 32.65246, "lng": 51.67462}, "height": 1, "color": "rgba(0,255,0,1)"}, {"hoverLabel": "UPSA Maker Space", "pos": {"lat": 40.9635573, "lng": -5.6663385}, "height": 1, "color": "rgba(0,255,0,1)"}, {"hoverLabel": "FabLab Tehnopolis", "pos": {"lat": 42.7764552, "lng": 18.9436701}, "height": 1, "color": "rgba(0,255,0,1)"}, {"hoverLabel": "Fablab O - Shenzhen \u201c\u6570\u5236\u201d\u5de5\u574a-\u6df1\u5733\u7ad9", "pos": {"lat": 22.720923, "lng": 114.246822}, "height": 1, "color": "rgba(0,255,0,1)"}, {"hoverLabel": "Fab Lab Salerno", "pos": {"lat": 40.6783834, "lng": 14.760132}, "height": 1, "color": "rgba(0,255,0,1)"}, {"hoverLabel": "FABLAB UJAEN", "pos": {"lat": 37.7872781, "lng": -3.77532829999996}, "height": 1, "color": "rgba(0,255,0,1)"}, {"hoverLabel": "Green FabLab, Kamp-Litfort", "pos": {"lat": 51.5004505, "lng": 6.5457826}, "height": 1, "color": "rgba(0,255,0,1)"}, {"hoverLabel": "Oceanonaranja FabLab", "pos": {"lat": 39.4991201, "lng": -0.336469599999987}, "height": 1, "color": "rgba(0,255,0,1)"}, {"hoverLabel": "fablabmooer", "pos": {"lat": 41.79222, "lng": 123.43278}, "height": 1, "color": "rgba(0,255,0,1)"}, {"hoverLabel": "FabLab Tsukuba", "pos": {"lat": 36.0982348, "lng": 140.1083129}, "height": 1, "color": "rgba(0,255,0,1)"}, {"hoverLabel": "Nexus International School (Singapore) Makerspace and Fab Lab", "pos": {"lat": 1.319258, "lng": 103.775738}, "height": 1, "color": "rgba(0,255,0,1)"}, {"hoverLabel": "iMakerbase", "pos": {"lat": 22.6053605, "lng": 113.8482781}, "height": 1, "color": "rgba(0,255,0,1)"}, {"hoverLabel": "Laminiak", "pos": {"lat": 48.8547646, "lng": 2.38999190000004}, "height": 1, "color": "rgba(0,255,0,1)"}, {"hoverLabel": "Bright Youth Council", "pos": {"lat": -25.5253546, "lng": 28.1005632}, "height": 1, "color": "rgba(0,255,0,1)"}, {"hoverLabel": "LH3D Fab Lab", "pos": {"lat": 49.4974627, "lng": 0.124160899999993}, "height": 1, "color": "rgba(0,255,0,1)"}, {"hoverLabel": "Laboratorio de Artesan\u00eda Digital", "pos": {"lat": 37.8382269, "lng": -0.793731799999932}, "height": 1, "color": "rgba(0,255,0,1)"}, {"hoverLabel": "Brooks Crossing Innovation Lab", "pos": {"lat": 36.984147, "lng": -76.42371}, "height": 1, "color": "rgba(0,255,0,1)"}, {"hoverLabel": "ZS6COG Fablab", "pos": {"lat": -26.4198791, "lng": 28.3484831000001}, "height": 1, "color": "rgba(0,255,0,1)"}, {"hoverLabel": "FabLab Dhaka", "pos": {"lat": 23.7745941, "lng": 90.4120034}, "height": 1, "color": "rgba(0,255,0,1)"}, {"hoverLabel": "Fab Lab de l'Acad\u00e9mie Ste-Th\u00e9r\u00e8se", "pos": {"lat": 45.6463796, "lng": -73.7749843}, "height": 1, "color": "rgba(0,255,0,1)"}, {"hoverLabel": "LURLAB mobile", "pos": {"lat": 43.0220383, "lng": -2.2720221}, "height": 1, "color": "rgba(0,255,0,1)"}, {"hoverLabel": "Xerocraft", "pos": {"lat": 32.2273685, "lng": -110.9735527}, "height": 1, "color": "rgba(0,255,0,1)"}, {"hoverLabel": "At3flo", "pos": {"lat": 47.0043, "lng": 7.106496}, "height": 1, "color": "rgba(0,255,0,1)"}, {"hoverLabel": "Fablab Amsterdam", "pos": {"lat": 52.372773, "lng": 4.900313}, "height": 1, "color": "rgba(0,255,0,1)"}, {"hoverLabel": "Stanford Learning FabLab", "pos": {"lat": 37.4418834, "lng": -122.1430195}, "height": 1, "color": "rgba(0,255,0,1)"}, {"hoverLabel": "Stoughton High School", "pos": {"lat": 42.9234181, "lng": -89.2352076}, "height": 1, "color": "rgba(0,255,0,1)"}, {"hoverLabel": "Fab Lab Houston", "pos": {"lat": 29.9009946081643, "lng": -95.3443880094483}, "height": 1, "color": "rgba(0,255,0,1)"}, {"hoverLabel": "FabLab Bangkok", "pos": {"lat": 13.7204843, "lng": 100.4983535}, "height": 1, "color": "rgba(0,255,0,1)"}, {"hoverLabel": "Fab Lab Escola SESI - S\u00e3o Jos\u00e9 dos Campos", "pos": {"lat": -23.2520319, "lng": -45.8853301}, "height": 1, "color": "rgba(0,255,0,1)"}, {"hoverLabel": "Snepo FabLab Sydney", "pos": {"lat": -33.8749353, "lng": 151.2149366}, "height": 1, "color": "rgba(0,255,0,1)"}, {"hoverLabel": "Mt. Elliott Makerspace", "pos": {"lat": 42.331427, "lng": -83.0457538}, "height": 1, "color": "rgba(0,255,0,1)"}, {"hoverLabel": "Fab Lab Escola SESI - Tatu\u00ed", "pos": {"lat": -23.3423221, "lng": -47.8390639}, "height": 1, "color": "rgba(0,255,0,1)"}, {"hoverLabel": "Fabric'INSA", "pos": {"lat": 43.5703224, "lng": 1.46792049999999}, "height": 1, "color": "rgba(0,255,0,1)"}, {"hoverLabel": "FabLab of ITMO University", "pos": {"lat": 59.9342802, "lng": 30.3350986}, "height": 1, "color": "rgba(0,255,0,1)"}, {"hoverLabel": "FabLac", "pos": {"lat": 46.3555848, "lng": 6.42613240000003}, "height": 1, "color": "rgba(0,255,0,1)"}, {"hoverLabel": "Maker Institute: Active Learning Lab", "pos": {"lat": 50.102386, "lng": 14.391392}, "height": 1, "color": "rgba(0,255,0,1)"}, {"hoverLabel": "RDFLAB FIU", "pos": {"lat": 25.7589501142416, "lng": -80.3756127126266}, "height": 1, "color": "rgba(0,255,0,1)"}, {"hoverLabel": "EHove Career Center Fab Lab", "pos": {"lat": 41.3314604239796, "lng": -82.6320810158691}, "height": 1, "color": "rgba(0,255,0,1)"}, {"hoverLabel": "Fablab Badajoz", "pos": {"lat": 38.8841862, "lng": -7.0030056}, "height": 1, "color": "rgba(0,255,0,1)"}, {"hoverLabel": "Fablab Ostiense", "pos": {"lat": 41.8675865, "lng": 12.4789488}, "height": 1, "color": "rgba(0,255,0,1)"}, {"hoverLabel": "FabLab UniTrento", "pos": {"lat": 46.0680895, "lng": 11.1497762}, "height": 1, "color": "rgba(0,255,0,1)"}, {"hoverLabel": "Fabdulys", "pos": {"lat": 43.5137943, "lng": 1.17891}, "height": 1, "color": "rgba(0,255,0,1)"}, {"hoverLabel": "SPACE+SPACE FabLab", "pos": {"lat": 3.08095, "lng": 101.613}, "height": 1, "color": "rgba(0,255,0,1)"}, {"hoverLabel": "Fablab Abruzzo Digitaleria", "pos": {"lat": 42.4617943, "lng": 14.2160961}, "height": 1, "color": "rgba(0,255,0,1)"}, {"hoverLabel": "The Beach Lab", "pos": {"lat": 48.1351253, "lng": 11.5819806}, "height": 1, "color": "rgba(0,255,0,1)"}, {"hoverLabel": "POALAB", "pos": {"lat": -30.0261471, "lng": -51.2212387}, "height": 1, "color": "rgba(0,255,0,1)"}, {"hoverLabel": "FabLab Gaziantep", "pos": {"lat": 37.0350625, "lng": 37.3138125}, "height": 1, "color": "rgba(0,255,0,1)"}, {"hoverLabel": " Fab Lab Escola SESI - A.E. Carvalho", "pos": {"lat": -23.5358612, "lng": -46.4754202}, "height": 1, "color": "rgba(0,255,0,1)"}, {"hoverLabel": "Fair Use Building and Research (Fubar) Labs", "pos": {"lat": 40.4868015857438, "lng": -74.4592376748047}, "height": 1, "color": "rgba(0,255,0,1)"}, {"hoverLabel": "SIFC Art Center", "pos": {"lat": 22.54554, "lng": 114.0683}, "height": 1, "color": "rgba(0,255,0,1)"}, {"hoverLabel": "LabFab de Rennes", "pos": {"lat": 48.1146355, "lng": -1.67719990000001}, "height": 1, "color": "rgba(0,255,0,1)"}, {"hoverLabel": "LAB ABERTO FAB LAB", "pos": {"lat": 39.0917249, "lng": -9.25944070000003}, "height": 1, "color": "rgba(0,255,0,1)"}, {"hoverLabel": "riidl", "pos": {"lat": 19.072674, "lng": 72.9006989}, "height": 1, "color": "rgba(0,255,0,1)"}, {"hoverLabel": "Fab Lab DIU", "pos": {"lat": 24.16667, "lng": 90.41667}, "height": 1, "color": "rgba(0,255,0,1)"}, {"hoverLabel": "Fabrico", "pos": {"lat": 44.9339550455216, "lng": 4.89360454498291}, "height": 1, "color": "rgba(0,255,0,1)"}, {"hoverLabel": "IDEAStudio", "pos": {"lat": 29.7360324, "lng": -95.5740349}, "height": 1, "color": "rgba(0,255,0,1)"}, {"hoverLabel": "IDEX PERU JAP\u00d3N", "pos": {"lat": -6.2296102, "lng": -77.8699539}, "height": 1, "color": "rgba(0,255,0,1)"}, {"hoverLabel": "At\u00f6lye Ankara", "pos": {"lat": 39.9680821, "lng": 32.8383388}, "height": 1, "color": "rgba(0,255,0,1)"}, {"hoverLabel": "FabLab-UtoPi", "pos": {"lat": 46.8064095, "lng": 4.4150332}, "height": 1, "color": "rgba(0,255,0,1)"}, {"hoverLabel": "FabLab DEU", "pos": {"lat": 35.1454745, "lng": 129.0368128}, "height": 1, "color": "rgba(0,255,0,1)"}, {"hoverLabel": "FabLab-Bayreuth", "pos": {"lat": 49.962135, "lng": 11.6176954}, "height": 1, "color": "rgba(0,255,0,1)"}, {"hoverLabel": "Schenectady-GE Mobile Fab Lab ", "pos": {"lat": 42.8142432, "lng": -73.9395687}, "height": 1, "color": "rgba(0,255,0,1)"}, {"hoverLabel": "FAB LAB ENIAC", "pos": {"lat": -23.4723402, "lng": -46.5308296}, "height": 1, "color": "rgba(0,255,0,1)"}, {"hoverLabel": "FabLab Mallorca", "pos": {"lat": 39.5425326, "lng": 2.7411535}, "height": 1, "color": "rgba(0,255,0,1)"}, {"hoverLabel": "CATIMFabLab", "pos": {"lat": 41.15, "lng": -8.6167}, "height": 1, "color": "rgba(0,255,0,1)"}, {"hoverLabel": "Fab Lab IDEX Carlos Salazar Romero", "pos": {"lat": -9.1267241, "lng": -78.5231796}, "height": 1, "color": "rgba(0,255,0,1)"}, {"hoverLabel": "Fab Lab Escola SESI - Bauru", "pos": {"lat": -22.3320623, "lng": -49.0783183}, "height": 1, "color": "rgba(0,255,0,1)"}, {"hoverLabel": "FabLab ULB", "pos": {"lat": 50.8226474, "lng": 4.3872472}, "height": 1, "color": "rgba(0,255,0,1)"}, {"hoverLabel": "Niba maker space", "pos": {"lat": 34.341067, "lng": 108.939714}, "height": 1, "color": "rgba(0,255,0,1)"}, {"hoverLabel": "Fab Lab Ellesmere Port", "pos": {"lat": 53.2798455, "lng": -2.89930040000002}, "height": 1, "color": "rgba(0,255,0,1)"}, {"hoverLabel": "Maker's Edge makerspace", "pos": {"lat": 31.545979, "lng": -97.143744}, "height": 1, "color": "rgba(0,255,0,1)"}, {"hoverLabel": "MuHub innovative factory", "pos": {"lat": 33.5975460443146, "lng": -7.61987994211121}, "height": 1, "color": "rgba(0,255,0,1)"}, {"hoverLabel": "Stadslab Eindhoven", "pos": {"lat": 51.4381343, "lng": 5.4876593}, "height": 1, "color": "rgba(0,255,0,1)"}, {"hoverLabel": "HSE LAB", "pos": {"lat": 55.726056, "lng": 37.687354}, "height": 1, "color": "rgba(0,255,0,1)"}, {"hoverLabel": "Fablab Imola", "pos": {"lat": 44.3532657, "lng": 11.6932167}, "height": 1, "color": "rgba(0,255,0,1)"}, {"hoverLabel": "EL FABSPACE Beb Dzira", "pos": {"lat": 36.7938503, "lng": 10.1781833}, "height": 1, "color": "rgba(0,255,0,1)"}, {"hoverLabel": "MillauLab", "pos": {"lat": 44.099136, "lng": 3.07963399999994}, "height": 1, "color": "rgba(0,255,0,1)"}, {"hoverLabel": "Fab Lab IDEX Huancavelica", "pos": {"lat": -12.783853, "lng": -74.9773799}, "height": 1, "color": "rgba(0,255,0,1)"}, {"hoverLabel": "FAB LAB EMGYTEC", "pos": {"lat": -12.0660984186246, "lng": -77.0545986350098}, "height": 1, "color": "rgba(0,255,0,1)"}, {"hoverLabel": "WE DO FAB LAB", "pos": {"lat": 45.572144, "lng": 8.639177}, "height": 1, "color": "rgba(0,255,0,1)"}, {"hoverLabel": "Syskrack", "pos": {"lat": 40.6323636, "lng": 16.2834921}, "height": 1, "color": "rgba(0,255,0,1)"}, {"hoverLabel": "FabLab Unicomfacauca", "pos": {"lat": 2.4422225, "lng": -76.6053901}, "height": 1, "color": "rgba(0,255,0,1)"}, {"hoverLabel": "ASU Media and Immersive eXperience Center FabLab", "pos": {"lat": 33.4168237, "lng": -111.8295172}, "height": 1, "color": "rgba(0,255,0,1)"}, {"hoverLabel": "Smart Research", "pos": {"lat": 41.6167, "lng": 0.6222}, "height": 1, "color": "rgba(0,255,0,1)"}, {"hoverLabel": "Lima Makers ", "pos": {"lat": -12.1151159, "lng": -77.0246346}, "height": 1, "color": "rgba(0,255,0,1)"}, {"hoverLabel": "Fab Lab IDEX Pasco", "pos": {"lat": -10.6651461, "lng": -76.2518528}, "height": 1, "color": "rgba(0,255,0,1)"}, {"hoverLabel": "Fablab Abu Dhabi", "pos": {"lat": 24.3139171, "lng": 54.5606911}, "height": 1, "color": "rgba(0,255,0,1)"}, {"hoverLabel": "Fab Lab IDEX Nueva Esperanza", "pos": {"lat": -8.0801216, "lng": -79.035852}, "height": 1, "color": "rgba(0,255,0,1)"}, {"hoverLabel": "Hand.Werk.Stadt - M\u00f6dling", "pos": {"lat": 48.0831252, "lng": 16.2997655}, "height": 1, "color": "rgba(0,255,0,1)"}, {"hoverLabel": "FabLab ENIT", "pos": {"lat": 36.8286328, "lng": 10.1415187}, "height": 1, "color": "rgba(0,255,0,1)"}, {"hoverLabel": "Brenchie's lab", "pos": {"lat": 12.5236101, "lng": -70.034233}, "height": 1, "color": "rgba(0,255,0,1)"}, {"hoverLabel": "FabLab Groene Hart", "pos": {"lat": 52.1615220705759, "lng": 4.74395878783571}, "height": 1, "color": "rgba(0,255,0,1)"}, {"hoverLabel": "Fab Lab Olbia", "pos": {"lat": 40.9356228191842, "lng": 9.52202296826169}, "height": 1, "color": "rgba(0,255,0,1)"}, {"hoverLabel": "Fab Lab Escola SESI - Taubat\u00e9", "pos": {"lat": -23.01681, "lng": -45.5739924}, "height": 1, "color": "rgba(0,255,0,1)"}, {"hoverLabel": "Fab Lab IDEX Rep\u00fablica Federal de Alemania", "pos": {"lat": -6.7744917, "lng": -79.851863}, "height": 1, "color": "rgba(0,255,0,1)"}, {"hoverLabel": "FabLab Bergen op Zoom", "pos": {"lat": 51.4951008, "lng": 4.2888627}, "height": 1, "color": "rgba(0,255,0,1)"}, {"hoverLabel": "Fab Lab Escola SESI - S\u00e3o Jos\u00e9 do Rio Preto", "pos": {"lat": -20.8093385, "lng": -49.3648305}, "height": 1, "color": "rgba(0,255,0,1)"}, {"hoverLabel": "Fab Lab IDEX Pedro A Del \u00c1guila Hidalgo", "pos": {"lat": -3.7485948, "lng": -73.2587984}, "height": 1, "color": "rgba(0,255,0,1)"}, {"hoverLabel": "Linguere Fablab", "pos": {"lat": 14.7328125, "lng": -17.4561875}, "height": 1, "color": "rgba(0,255,0,1)"}, {"hoverLabel": "FabLab Kannai", "pos": {"lat": 35.4466114, "lng": 139.6377282}, "height": 1, "color": "rgba(0,255,0,1)"}, {"hoverLabel": "Fab Lab IDEX Nor Oriental de la Selva", "pos": {"lat": -6.4957597, "lng": -76.3566984}, "height": 1, "color": "rgba(0,255,0,1)"}, {"hoverLabel": "Fab Lab IDEX Suiza", "pos": {"lat": -8.3908923, "lng": -74.5756897}, "height": 1, "color": "rgba(0,255,0,1)"}, {"hoverLabel": "Senfablab", "pos": {"lat": 14.734918, "lng": -17.4499404000001}, "height": 1, "color": "rgba(0,255,0,1)"}, {"hoverLabel": "FabLab Sibillini", "pos": {"lat": 42.9646405946447, "lng": 13.4294947162689}, "height": 1, "color": "rgba(0,255,0,1)"}, {"hoverLabel": "Fab Lab Escola SESI - Ribeir\u00e3o Preto", "pos": {"lat": -21.1905825, "lng": -47.7765918}, "height": 1, "color": "rgba(0,255,0,1)"}, {"hoverLabel": "Fab Lab Escola SESI - Itu SP", "pos": {"lat": -23.2750222, "lng": -47.2840103}, "height": 1, "color": "rgba(0,255,0,1)"}, {"hoverLabel": "Mini FabLab FISAT", "pos": {"lat": 10.231416426259, "lng": 76.4087938318771}, "height": 1, "color": "rgba(0,255,0,1)"}, {"hoverLabel": "FabLab Middelfart", "pos": {"lat": 55.5048559, "lng": 9.72925429999998}, "height": 1, "color": "rgba(0,255,0,1)"}, {"hoverLabel": "Collaboration Space", "pos": {"lat": 40.8934129, "lng": 29.3777552}, "height": 1, "color": "rgba(0,255,0,1)"}, {"hoverLabel": "Fab Lab Zacatecas", "pos": {"lat": 22.7785216, "lng": -102.5826914}, "height": 1, "color": "rgba(0,255,0,1)"}, {"hoverLabel": "FAB LAB LIVRE SP C.F.C. CIDADE TIRADENTES", "pos": {"lat": -23.5801259, "lng": -46.3898429}, "height": 1, "color": "rgba(0,255,0,1)"}, {"hoverLabel": "FabLab Goes", "pos": {"lat": 51.507191, "lng": 3.89166999999998}, "height": 1, "color": "rgba(0,255,0,1)"}, {"hoverLabel": "STEAM Fab Lab TASIS Dorado", "pos": {"lat": 18.445376, "lng": -66.268708}, "height": 1, "color": "rgba(0,255,0,1)"}, {"hoverLabel": "FabLab Singapore Polytechnic", "pos": {"lat": 1.3091455, "lng": 103.7790037}, "height": 1, "color": "rgba(0,255,0,1)"}, {"hoverLabel": "the One maker", "pos": {"lat": 22.54554, "lng": 114.0683}, "height": 1, "color": "rgba(0,255,0,1)"}, {"hoverLabel": "fablab La Verriere", "pos": {"lat": 48.8600654, "lng": 2.44146420000004}, "height": 1, "color": "rgba(0,255,0,1)"}, {"hoverLabel": "Espacio Maker UNA", "pos": {"lat": 10.0030691, "lng": -84.116827}, "height": 1, "color": "rgba(0,255,0,1)"}, {"hoverLabel": "Fablab Catania", "pos": {"lat": 37.5130619, "lng": 15.0767023}, "height": 1, "color": "rgba(0,255,0,1)"}, {"hoverLabel": "Fab Lab Escola SESI - Birigui", "pos": {"lat": -21.2993316, "lng": -50.3326952}, "height": 1, "color": "rgba(0,255,0,1)"}, {"hoverLabel": "Linden-McKinley STEM High School", "pos": {"lat": 39.9611755, "lng": -82.9987942}, "height": 1, "color": "rgba(0,255,0,1)"}, {"hoverLabel": "Fab Lab Escola SESI - Campinas", "pos": {"lat": -22.915065, "lng": -47.068139}, "height": 1, "color": "rgba(0,255,0,1)"}, {"hoverLabel": "Lal Bahadur Shastri Mini Fab Lab Kasaragod", "pos": {"lat": 12.5029311292414, "lng": 75.080055683992}, "height": 1, "color": "rgba(0,255,0,1)"}, {"hoverLabel": "Fab Lab Cardiff", "pos": {"lat": 51.4948207, "lng": -3.21236220000003}, "height": 1, "color": "rgba(0,255,0,1)"}, {"hoverLabel": "Fab Lab Raseko", "pos": {"lat": 60.4718809, "lng": 22.0359684}, "height": 1, "color": "rgba(0,255,0,1)"}, {"hoverLabel": "Sale Creek VWeLab", "pos": {"lat": 35.3824688, "lng": -85.1050588}, "height": 1, "color": "rgba(0,255,0,1)"}, {"hoverLabel": "La Passerelle", "pos": {"lat": 46.7266808, "lng": 2.506221}, "height": 1, "color": "rgba(0,255,0,1)"}, {"hoverLabel": "DROT LAB", "pos": {"lat": -2.8963363, "lng": -78.9953625}, "height": 1, "color": "rgba(0,255,0,1)"}, {"hoverLabel": "Maker Austria", "pos": {"lat": 48.1882792, "lng": 16.3467838}, "height": 1, "color": "rgba(0,255,0,1)"}, {"hoverLabel": "FabLab Kaunas", "pos": {"lat": 54.9039245, "lng": 23.9577839999999}, "height": 1, "color": "rgba(0,255,0,1)"}, {"hoverLabel": "La Fabrique Janz\u00e9", "pos": {"lat": 47.9580592, "lng": -1.4980106}, "height": 1, "color": "rgba(0,255,0,1)"}, {"hoverLabel": "FabLab Kitakagaya", "pos": {"lat": 34.623314, "lng": 135.4745679}, "height": 1, "color": "rgba(0,255,0,1)"}, {"hoverLabel": "La Fabrique Amanlis", "pos": {"lat": 48.0033603, "lng": -1.4750607}, "height": 1, "color": "rgba(0,255,0,1)"}, {"hoverLabel": "Fab Lab Lima", "pos": {"lat": -12.0972753, "lng": -77.0359758}, "height": 1, "color": "rgba(0,255,0,1)"}, {"hoverLabel": "FabLab Bohol", "pos": {"lat": 9.6468963, "lng": 123.8559114}, "height": 1, "color": "rgba(0,255,0,1)"}, {"hoverLabel": "FabLab Coventry", "pos": {"lat": 52.4075446, "lng": -1.4934446}, "height": 1, "color": "rgba(0,255,0,1)"}, {"hoverLabel": "Museum of Science and Industry Chicago Wanger Family Fab Lab", "pos": {"lat": 41.7904631298042, "lng": -87.5832886956817}, "height": 1, "color": "rgba(0,255,0,1)"}, {"hoverLabel": "Fablab Narmadalaya", "pos": {"lat": 22.1200625, "lng": 75.6879375}, "height": 1, "color": "rgba(0,255,0,1)"}, {"hoverLabel": "IZOLAB", "pos": {"lat": 50.475818, "lng": 30.507673}, "height": 1, "color": "rgba(0,255,0,1)"}, {"hoverLabel": "Deusto FabLab", "pos": {"lat": 43.2715398, "lng": -2.9378276}, "height": 1, "color": "rgba(0,255,0,1)"}, {"hoverLabel": "Fablab CST - Phuntsholing, Bhutan", "pos": {"lat": 26.8501757, "lng": 89.3940013}, "height": 1, "color": "rgba(0,255,0,1)"}, {"hoverLabel": "FabLab Madurai", "pos": {"lat": 9.90869, "lng": 78.1095581}, "height": 1, "color": "rgba(0,255,0,1)"}, {"hoverLabel": "Fab Lab Minya", "pos": {"lat": 28.1006937031076, "lng": 30.7526128463348}, "height": 1, "color": "rgba(0,255,0,1)"}, {"hoverLabel": "CSAS VW eLab", "pos": {"lat": 35.0504167, "lng": -85.294797}, "height": 1, "color": "rgba(0,255,0,1)"}, {"hoverLabel": "Fablab \u00c9voraTech", "pos": {"lat": 38.5475368, "lng": -7.9106926}, "height": 1, "color": "rgba(0,255,0,1)"}, {"hoverLabel": "FabLab Eastern Visayas", "pos": {"lat": 11.1575, "lng": 124.9908}, "height": 1, "color": "rgba(0,255,0,1)"}, {"hoverLabel": "Fab Lab MDP", "pos": {"lat": -37.99607, "lng": -57.5579306}, "height": 1, "color": "rgba(0,255,0,1)"}, {"hoverLabel": "RuralLab", "pos": {"lat": 46.744746, "lng": 0.931697999999983}, "height": 1, "color": "rgba(0,255,0,1)"}, {"hoverLabel": "Creative Spark Enterprise Fablab", "pos": {"lat": 53.9843145, "lng": -6.383099}, "height": 1, "color": "rgba(0,255,0,1)"}, {"hoverLabel": "MIY MakerS", "pos": {"lat": 46.8069836, "lng": 7.17751929999997}, "height": 1, "color": "rgba(0,255,0,1)"}, {"hoverLabel": "Inno FabLab", "pos": {"lat": 41.1641803, "lng": 28.7696858}, "height": 1, "color": "rgba(0,255,0,1)"}, {"hoverLabel": "FabLab Underes \u00c4tzisloo", "pos": {"lat": 47.7612106, "lng": 8.5868224}, "height": 1, "color": "rgba(0,255,0,1)"}, {"hoverLabel": "Digital Craft House", "pos": {"lat": 35.8506381, "lng": 50.9884102}, "height": 1, "color": "rgba(0,255,0,1)"}, {"hoverLabel": "Fablab da Firjan SENAI Caxias", "pos": {"lat": -22.7833343, "lng": -43.3078868}, "height": 1, "color": "rgba(0,255,0,1)"}, {"hoverLabel": "CNU Inno-Factory(Chungnam National University)", "pos": {"lat": 36.3688125, "lng": 127.3468125}, "height": 1, "color": "rgba(0,255,0,1)"}, {"hoverLabel": "Defaral Sa Labo", "pos": {"lat": 14.7139787, "lng": -17.4551477}, "height": 1, "color": "rgba(0,255,0,1)"}, {"hoverLabel": "FabLab Odemis", "pos": {"lat": 38.2195989, "lng": 27.9692425000001}, "height": 1, "color": "rgba(0,255,0,1)"}, {"hoverLabel": "SDG Solution Space", "pos": {"lat": 46.2206964, "lng": 6.1470595}, "height": 1, "color": "rgba(0,255,0,1)"}, {"hoverLabel": "fablab@strathclyde", "pos": {"lat": 55.8618841, "lng": -4.24528629999998}, "height": 1, "color": "rgba(0,255,0,1)"}, {"hoverLabel": "Hackspace Catania", "pos": {"lat": 37.5132991, "lng": 15.0880438}, "height": 1, "color": "rgba(0,255,0,1)"}, {"hoverLabel": "ACE Lab", "pos": {"lat": 32.3465472, "lng": -97.424115}, "height": 1, "color": "rgba(0,255,0,1)"}, {"hoverLabel": "Fablab Vicente Lopez", "pos": {"lat": -34.5429365, "lng": -58.5131243}, "height": 1, "color": "rgba(0,255,0,1)"}, {"hoverLabel": "Chantier Libre", "pos": {"lat": 45.9742246, "lng": 4.13095010000006}, "height": 1, "color": "rgba(0,255,0,1)"}, {"hoverLabel": "Fablab Bristol - Saint Gobain", "pos": {"lat": 51.5280046, "lng": -2.5887881}, "height": 1, "color": "rgba(0,255,0,1)"}, {"hoverLabel": "Fab Lab UN Medell\u00edn", "pos": {"lat": 6.2637665, "lng": -75.5786355}, "height": 1, "color": "rgba(0,255,0,1)"}, {"hoverLabel": "Nybi.cc", "pos": {"lat": 48.6936291, "lng": 6.19918580000001}, "height": 1, "color": "rgba(0,255,0,1)"}, {"hoverLabel": "FabLab da Firjan SENAI Nova Friburgo", "pos": {"lat": -22.2843336, "lng": -42.5331083}, "height": 1, "color": "rgba(0,255,0,1)"}, {"hoverLabel": "Smart Materials", "pos": {"lat": 49.7397084, "lng": 4.71786229999998}, "height": 1, "color": "rgba(0,255,0,1)"}, {"hoverLabel": "Fab Lab Extremadura", "pos": {"lat": 38.4429436, "lng": -6.3604544}, "height": 1, "color": "rgba(0,255,0,1)"}, {"hoverLabel": "Hand Made", "pos": {"lat": 41.2924874, "lng": -72.6196444}, "height": 1, "color": "rgba(0,255,0,1)"}, {"hoverLabel": "Cauvaldor", "pos": {"lat": 44.860203, "lng": 1.887658}, "height": 1, "color": "rgba(0,255,0,1)"}, {"hoverLabel": "Things Lab", "pos": {"lat": 41.3201614386284, "lng": 19.8051637733108}, "height": 1, "color": "rgba(0,255,0,1)"}, {"hoverLabel": "Fab Lab Isafjordur", "pos": {"lat": 66.0740632, "lng": -23.1348744}, "height": 1, "color": "rgba(0,255,0,1)"}, {"hoverLabel": "Fab Lab ESAN", "pos": {"lat": -12.10423, "lng": -76.959966}, "height": 1, "color": "rgba(0,255,0,1)"}, {"hoverLabel": "FabLab-L\u00fcbeck", "pos": {"lat": 53.8348764, "lng": 10.697449}, "height": 1, "color": "rgba(0,255,0,1)"}, {"hoverLabel": "KAUST Prototyping Core Lab", "pos": {"lat": 22.3090074, "lng": 39.1037057999999}, "height": 1, "color": "rgba(0,255,0,1)"}, {"hoverLabel": "42Wolfsburg FabLab", "pos": {"lat": 52.4267625, "lng": 10.7895275}, "height": 1, "color": "rgba(0,255,0,1)"}, {"hoverLabel": "Fab Lab Hartlepool", "pos": {"lat": 54.6835263, "lng": -1.2162929}, "height": 1, "color": "rgba(0,255,0,1)"}, {"hoverLabel": "SNA X-Hub", "pos": {"lat": 31.30408, "lng": 120.59538}, "height": 1, "color": "rgba(0,255,0,1)"}, {"hoverLabel": "Hobotorez", "pos": {"lat": 50.3578418629062, "lng": 30.6081993791103}, "height": 1, "color": "rgba(0,255,0,1)"}, {"hoverLabel": "SEDI-Cup-ct", "pos": {"lat": 37.6017217069246, "lng": -0.979470906676511}, "height": 1, "color": "rgba(0,255,0,1)"}, {"hoverLabel": "Lieu de Fabrication Ouvert", "pos": {"lat": 43.3101074, "lng": 5.3898011}, "height": 1, "color": "rgba(0,255,0,1)"}, {"hoverLabel": "Markham MakerSpace", "pos": {"lat": -12.1251007638846, "lng": -77.0162856962951}, "height": 1, "color": "rgba(0,255,0,1)"}, {"hoverLabel": "Fablab HEP Vaud", "pos": {"lat": 46.5128571, "lng": 6.6215937}, "height": 1, "color": "rgba(0,255,0,1)"}, {"hoverLabel": "Fablab Agrigento", "pos": {"lat": 37.3132279, "lng": 13.5791935}, "height": 1, "color": "rgba(0,255,0,1)"}, {"hoverLabel": "skylabworkshop", "pos": {"lat": 35.3070855, "lng": 139.5521867}, "height": 1, "color": "rgba(0,255,0,1)"}, {"hoverLabel": "Tata Centre for Technology and Design (TCTD)", "pos": {"lat": 19.130802, "lng": 72.91734}, "height": 1, "color": "rgba(0,255,0,1)"}, {"hoverLabel": "FabLab B3", "pos": {"lat": 50.6448678169118, "lng": 5.59054579721679}, "height": 1, "color": "rgba(0,255,0,1)"}, {"hoverLabel": "Green Fab Lab", "pos": {"lat": 41.4468819, "lng": 2.13042700000005}, "height": 1, "color": "rgba(0,255,0,1)"}, {"hoverLabel": "Fablab M\u00e9dialab Pays du Clermontois", "pos": {"lat": 49.3871636739328, "lng": 2.39922454486077}, "height": 1, "color": "rgba(0,255,0,1)"}, {"hoverLabel": "Artilab Foundation", "pos": {"lat": 13.0212709117905, "lng": 77.5399448778297}, "height": 1, "color": "rgba(0,255,0,1)"}, {"hoverLabel": "Fablab Chennai", "pos": {"lat": 12.9316708, "lng": 79.8970438}, "height": 1, "color": "rgba(0,255,0,1)"}, {"hoverLabel": "Fabulosa Lab", "pos": {"lat": -22.9264807, "lng": -43.1768903}, "height": 1, "color": "rgba(0,255,0,1)"}, {"hoverLabel": "\u0426\u041c\u0418\u0422 \"\u0410\u0432\u0438\u0430\u0442\u043e\u0440\" - Aviator CMIT", "pos": {"lat": 55.8491258, "lng": 49.0938165}, "height": 1, "color": "rgba(0,255,0,1)"}, {"hoverLabel": "Orange Fablab - Amman", "pos": {"lat": 31.58369, "lng": 36.33335}, "height": 1, "color": "rgba(0,255,0,1)"}, {"hoverLabel": "Bio-Fab", "pos": {"lat": 43.6369394, "lng": 3.86614680000002}, "height": 1, "color": "rgba(0,255,0,1)"}, {"hoverLabel": "McKinley South End Academy Fab Lab", "pos": {"lat": 42.3446625, "lng": -71.0730953}, "height": 1, "color": "rgba(0,255,0,1)"}, {"hoverLabel": "North Carolina Central University Fab Lab", "pos": {"lat": 35.975553, "lng": -78.902811}, "height": 1, "color": "rgba(0,255,0,1)"}, {"hoverLabel": "FABLAB EPT", "pos": {"lat": 36.8794556, "lng": 10.3372355}, "height": 1, "color": "rgba(0,255,0,1)"}, {"hoverLabel": "Fab Lab El Paso", "pos": {"lat": 31.76128475663, "lng": -106.49077590423}, "height": 1, "color": "rgba(0,255,0,1)"}, {"hoverLabel": "Fab Lab Pembrokeshire", "pos": {"lat": 51.7009229, "lng": -4.92598670000007}, "height": 1, "color": "rgba(0,255,0,1)"}, {"hoverLabel": "Fab Lab IDEX Francisco de Paula Gonzales Vigil", "pos": {"lat": -17.9939552, "lng": -70.2442642}, "height": 1, "color": "rgba(0,255,0,1)"}, {"hoverLabel": "FabLab Sion", "pos": {"lat": 46.2307556, "lng": 7.3628277}, "height": 1, "color": "rgba(0,255,0,1)"}, {"hoverLabel": "ArD TechLab", "pos": {"lat": 33.8999596, "lng": 35.4837546}, "height": 1, "color": "rgba(0,255,0,1)"}, {"hoverLabel": "ISA Innovation Centre Liwan", "pos": {"lat": 23.0568371154941, "lng": 113.196067981476}, "height": 1, "color": "rgba(0,255,0,1)"}, {"hoverLabel": "Fablab Tecnoparque Popay\u00e1n", "pos": {"lat": 2.5, "lng": -76.83333}, "height": 1, "color": "rgba(0,255,0,1)"}, {"hoverLabel": "n\u00f2va", "pos": {"lat": 45.4182, "lng": 8.6147}, "height": 1, "color": "rgba(0,255,0,1)"}, {"hoverLabel": "FabLab Castanheiras", "pos": {"lat": -23.4712041, "lng": -46.8501501}, "height": 1, "color": "rgba(0,255,0,1)"}, {"hoverLabel": "FabLab Kids - Portal Bosque", "pos": {"lat": -34.9001557, "lng": -54.8498226}, "height": 1, "color": "rgba(0,255,0,1)"}, {"hoverLabel": "Fab Lab Escola SESI - Franca", "pos": {"lat": -20.5427133, "lng": -47.3823596}, "height": 1, "color": "rgba(0,255,0,1)"}, {"hoverLabel": "FabLab DAZAIFU", "pos": {"lat": 33.5081397, "lng": 130.506275}, "height": 1, "color": "rgba(0,255,0,1)"}, {"hoverLabel": "ebers ideas", "pos": {"lat": 19.1997427, "lng": -98.815572}, "height": 1, "color": "rgba(0,255,0,1)"}, {"hoverLabel": "Fablab Tiers lieu de Carpentras", "pos": {"lat": 44.0548918, "lng": 5.0459544}, "height": 1, "color": "rgba(0,255,0,1)"}, {"hoverLabel": "Fablab Saigon", "pos": {"lat": 10.806662, "lng": 106.687842}, "height": 1, "color": "rgba(0,255,0,1)"}, {"hoverLabel": "UAQ", "pos": {"lat": 20.7393, "lng": -99.9404}, "height": 1, "color": "rgba(0,255,0,1)"}, {"hoverLabel": "FabLab Winti", "pos": {"lat": 47.4943079, "lng": 8.71653679999997}, "height": 1, "color": "rgba(0,255,0,1)"}, {"hoverLabel": "Fablab Torino", "pos": {"lat": 45.0500697, "lng": 7.66823249999993}, "height": 1, "color": "rgba(0,255,0,1)"}, {"hoverLabel": "FabLab CFUV", "pos": {"lat": 44.9579428, "lng": 34.0916061}, "height": 1, "color": "rgba(0,255,0,1)"}, {"hoverLabel": "Fab Lab Escola SESI - Limeira", "pos": {"lat": -22.5755154, "lng": -47.49089}, "height": 1, "color": "rgba(0,255,0,1)"}, {"hoverLabel": "MarkerLab", "pos": {"lat": 45.6793363, "lng": 11.9255803}, "height": 1, "color": "rgba(0,255,0,1)"}, {"hoverLabel": "FabLab Jujuy", "pos": {"lat": -24.1857864, "lng": -65.2994767}, "height": 1, "color": "rgba(0,255,0,1)"}, {"hoverLabel": "Fab Lab Aachen at RWTH Aachen University", "pos": {"lat": 50.7784761, "lng": 6.05993860000001}, "height": 1, "color": "rgba(0,255,0,1)"}, {"hoverLabel": "Fab Lab IDEX Jorge Basadre Grohman", "pos": {"lat": -12.5923227, "lng": -69.1944254}, "height": 1, "color": "rgba(0,255,0,1)"}, {"hoverLabel": "FabLab Biella", "pos": {"lat": 45.5746449, "lng": 8.0541346}, "height": 1, "color": "rgba(0,255,0,1)"}, {"hoverLabel": "Pronto3D Unochapec\u00f3", "pos": {"lat": -27.0940366, "lng": -52.6664865}, "height": 1, "color": "rgba(0,255,0,1)"}, {"hoverLabel": "FabLab Kielce", "pos": {"lat": 50.8679704, "lng": 20.6267106}, "height": 1, "color": "rgba(0,255,0,1)"}, {"hoverLabel": "Le Konk Ar Lab", "pos": {"lat": 47.8847661, "lng": -3.9151589}, "height": 1, "color": "rgba(0,255,0,1)"}, {"hoverLabel": "Fab Lab Chisinau", "pos": {"lat": 47.0104529, "lng": 28.8638102}, "height": 1, "color": "rgba(0,255,0,1)"}, {"hoverLabel": "FabLab Amman", "pos": {"lat": 31.9963968, "lng": 35.8983211}, "height": 1, "color": "rgba(0,255,0,1)"}, {"hoverLabel": "FAB LAB CITEB", "pos": {"lat": -22.3286675, "lng": -49.0660694}, "height": 1, "color": "rgba(0,255,0,1)"}, {"hoverLabel": "SIFC ACT Center", "pos": {"lat": 22.7838125, "lng": 113.8379375}, "height": 1, "color": "rgba(0,255,0,1)"}, {"hoverLabel": "FabLab Guatemala", "pos": {"lat": 14.6515328, "lng": -90.5153287}, "height": 1, "color": "rgba(0,255,0,1)"}, {"hoverLabel": "EcoStudio", "pos": {"lat": 9.0065784, "lng": -79.5890294}, "height": 1, "color": "rgba(0,255,0,1)"}, {"hoverLabel": "Makers of Baghdad", "pos": {"lat": 33.3082625, "lng": 44.4493281}, "height": 1, "color": "rgba(0,255,0,1)"}, {"hoverLabel": "ESPOCH-FAB-LAB", "pos": {"lat": -1.6650227, "lng": -78.6588786}, "height": 1, "color": "rgba(0,255,0,1)"}, {"hoverLabel": "FabLab USMP", "pos": {"lat": -12.0722868, "lng": -76.9425655}, "height": 1, "color": "rgba(0,255,0,1)"}, {"hoverLabel": "FAB LAB LIVRE SP CASA DA MEM\u00d3RIA ITAQUERA", "pos": {"lat": -23.5357688, "lng": -46.4553395}, "height": 1, "color": "rgba(0,255,0,1)"}, {"hoverLabel": "FABLAB \"L\" in Poland, Lubelskie", "pos": {"lat": 51.4464832, "lng": 21.9749666}, "height": 1, "color": "rgba(0,255,0,1)"}, {"hoverLabel": "FAB LAB CENTRO CULTURAL DA PENHA", "pos": {"lat": -23.5258658, "lng": -46.5484187}, "height": 1, "color": "rgba(0,255,0,1)"}, {"hoverLabel": "FabLab Kenitra", "pos": {"lat": 34.2562785, "lng": -6.58140660000004}, "height": 1, "color": "rgba(0,255,0,1)"}, {"hoverLabel": "Diamond Age Solutions", "pos": {"lat": -36.8654264342924, "lng": 174.632294219049}, "height": 1, "color": "rgba(0,255,0,1)"}, {"hoverLabel": "iLab Veracruz", "pos": {"lat": 19.5437751, "lng": -96.9101806}, "height": 1, "color": "rgba(0,255,0,1)"}, {"hoverLabel": "SMARTiLab", "pos": {"lat": 33.9627061, "lng": -6.83737819999999}, "height": 1, "color": "rgba(0,255,0,1)"}, {"hoverLabel": "Garage Lab", "pos": {"lat": -12.06913, "lng": -77.02059}, "height": 1, "color": "rgba(0,255,0,1)"}, {"hoverLabel": "Fab Lab Fort Smith", "pos": {"lat": 35.3859242, "lng": -94.3985475}, "height": 1, "color": "rgba(0,255,0,1)"}, {"hoverLabel": "TUC Lab", "pos": {"lat": 35.5183043, "lng": 24.0383591}, "height": 1, "color": "rgba(0,255,0,1)"}, {"hoverLabel": "FabLab Busan_Route", "pos": {"lat": 35.117136, "lng": 129.0880768}, "height": 1, "color": "rgba(0,255,0,1)"}, {"hoverLabel": "Farmlab", "pos": {"lat": 46.8824529, "lng": 15.9465505}, "height": 1, "color": "rgba(0,255,0,1)"}, {"hoverLabel": "Digital Fabrication Space @ Science Centre Singapore", "pos": {"lat": 1.3328578, "lng": 103.7361432}, "height": 1, "color": "rgba(0,255,0,1)"}, {"hoverLabel": "Fab Lab K\u00e4 Tr\u00e4re ", "pos": {"lat": 9.94039, "lng": -84.047613}, "height": 1, "color": "rgba(0,255,0,1)"}, {"hoverLabel": "FabLab Puerto Rico", "pos": {"lat": 18.2453176, "lng": -66.0057553}, "height": 1, "color": "rgba(0,255,0,1)"}, {"hoverLabel": "Fablab Chengdu DiiLab \u5730\u706b\u5b9e\u9a8c", "pos": {"lat": 30.7139803, "lng": 104.011452}, "height": 1, "color": "rgba(0,255,0,1)"}, {"hoverLabel": "FabLab Colegio Interamericano", "pos": {"lat": 14.64072, "lng": -90.51327}, "height": 1, "color": "rgba(0,255,0,1)"}, {"hoverLabel": "FAB LAB ARARAS", "pos": {"lat": -22.35694, "lng": -47.38417}, "height": 1, "color": "rgba(0,255,0,1)"}, {"hoverLabel": "FabLab CTU-Tuburan", "pos": {"lat": 10.7183553609357, "lng": 123.819573460516}, "height": 1, "color": "rgba(0,255,0,1)"}, {"hoverLabel": "EdgeBrook elementary fab lab ", "pos": {"lat": 41.9996491, "lng": -87.7606547}, "height": 1, "color": "rgba(0,255,0,1)"}, {"hoverLabel": "Fab Lab N2", "pos": {"lat": 24.7758045, "lng": 46.6601237}, "height": 1, "color": "rgba(0,255,0,1)"}, {"hoverLabel": "Fabryka Pasji", "pos": {"lat": 51.9462803, "lng": 15.5225983}, "height": 1, "color": "rgba(0,255,0,1)"}, {"hoverLabel": "FabLab Unipam", "pos": {"lat": -18.5744505, "lng": -46.5137008}, "height": 1, "color": "rgba(0,255,0,1)"}, {"hoverLabel": "FabLab Vilnius | Me\u0161k\u0117n\u0173 laboratorija", "pos": {"lat": 54.6952986, "lng": 25.3087598}, "height": 1, "color": "rgba(0,255,0,1)"}, {"hoverLabel": "Fab Lab Limerick", "pos": {"lat": 52.6659011, "lng": -8.623945}, "height": 1, "color": "rgba(0,255,0,1)"}, {"hoverLabel": "FAB LAB Villa La Angostura", "pos": {"lat": -40.760034, "lng": -71.6475854}, "height": 1, "color": "rgba(0,255,0,1)"}, {"hoverLabel": "Mid Atlantic regional maintenance center", "pos": {"lat": 36.8507689, "lng": -76.2858726}, "height": 1, "color": "rgba(0,255,0,1)"}, {"hoverLabel": "Onl'fait", "pos": {"lat": 46.2105583, "lng": 6.14129070000001}, "height": 1, "color": "rgba(0,255,0,1)"}, {"hoverLabel": "Fuse33", "pos": {"lat": 51.0384763, "lng": -113.9861042}, "height": 1, "color": "rgba(0,255,0,1)"}, {"hoverLabel": "ECEmakers", "pos": {"lat": 48.8520514, "lng": 2.2861234}, "height": 1, "color": "rgba(0,255,0,1)"}, {"hoverLabel": "StartLabs - UPS", "pos": {"lat": -0.22985, "lng": -78.52495}, "height": 1, "color": "rgba(0,255,0,1)"}, {"hoverLabel": "Fablab Quang Nam", "pos": {"lat": 15.5582392, "lng": 108.4912056}, "height": 1, "color": "rgba(0,255,0,1)"}, {"hoverLabel": "FabLab Sinergia", "pos": {"lat": -26.9075198, "lng": -48.6451183}, "height": 1, "color": "rgba(0,255,0,1)"}, {"hoverLabel": "Physalis Lab", "pos": {"lat": -33.4504948, "lng": -70.6839127}, "height": 1, "color": "rgba(0,255,0,1)"}, {"hoverLabel": "C-FORM LAB", "pos": {"lat": 19.5916931, "lng": -99.2532533}, "height": 1, "color": "rgba(0,255,0,1)"}, {"hoverLabel": "FabLab Vicenza", "pos": {"lat": 45.5295185558241, "lng": 11.4991500010498}, "height": 1, "color": "rgba(0,255,0,1)"}, {"hoverLabel": "Miami Valley Career Technology Center Fab Lab", "pos": {"lat": 39.8457759, "lng": -84.3289028}, "height": 1, "color": "rgba(0,255,0,1)"}, {"hoverLabel": "fab-c", "pos": {"lat": 50.4047853, "lng": 4.4386362}, "height": 1, "color": "rgba(0,255,0,1)"}, {"hoverLabel": "EnCube Labs", "pos": {"lat": 23.0196318, "lng": 72.5534580999999}, "height": 1, "color": "rgba(0,255,0,1)"}, {"hoverLabel": "SArD Fab Lab", "pos": {"lat": 34.1192078, "lng": 35.6464482}, "height": 1, "color": "rgba(0,255,0,1)"}, {"hoverLabel": "Offene Werkstatt Lurup & Precious Plastic Altona", "pos": {"lat": 53.5921646, "lng": 9.8804029}, "height": 1, "color": "rgba(0,255,0,1)"}, {"hoverLabel": "Fab Lab Firjan SENAI Campos", "pos": {"lat": -21.753321, "lng": -41.338199}, "height": 1, "color": "rgba(0,255,0,1)"}, {"hoverLabel": "NJV Akhuwat FabLab", "pos": {"lat": 24.8623616, "lng": 67.0196628}, "height": 1, "color": "rgba(0,255,0,1)"}, {"hoverLabel": "QSTSS FabLab ", "pos": {"lat": 25.227468, "lng": 51.4700485}, "height": 1, "color": "rgba(0,255,0,1)"}, {"hoverLabel": "JWPTI fablab", "pos": {"lat": 26.9356875, "lng": 90.3683125}, "height": 1, "color": "rgba(0,255,0,1)"}, {"hoverLabel": "Ionio Fab Lab", "pos": {"lat": 39.6163671, "lng": 19.9157635}, "height": 1, "color": "rgba(0,255,0,1)"}, {"hoverLabel": "CUArch Fab Lab", "pos": {"lat": 38.9344974, "lng": -76.997469}, "height": 1, "color": "rgba(0,255,0,1)"}, {"hoverLabel": "FabLab Mazara", "pos": {"lat": 37.6558064, "lng": 12.58912}, "height": 1, "color": "rgba(0,255,0,1)"}, {"hoverLabel": "FabLab.blue", "pos": {"lat": 51.7937563, "lng": 6.1434487}, "height": 1, "color": "rgba(0,255,0,1)"}, {"hoverLabel": "FabLab 1551 UNMSM", "pos": {"lat": -12.07724, "lng": -77.03099}, "height": 1, "color": "rgba(0,255,0,1)"}, {"hoverLabel": "Fablab Gij\u00f3n", "pos": {"lat": 43.5082886, "lng": -5.690641}, "height": 1, "color": "rgba(0,255,0,1)"}, {"hoverLabel": "cnr bio fablab", "pos": {"lat": 27.5035625, "lng": 89.8785625}, "height": 1, "color": "rgba(0,255,0,1)"}, {"hoverLabel": "QBIC Fab Lab", "pos": {"lat": 25.1663923, "lng": 51.4048547}, "height": 1, "color": "rgba(0,255,0,1)"}, {"hoverLabel": "SCIFI", "pos": {"lat": 42.6318201, "lng": 23.3666301000001}, "height": 1, "color": "rgba(0,255,0,1)"}, {"hoverLabel": "Casanostra", "pos": {"lat": 33.5902189, "lng": -7.629509}, "height": 1, "color": "rgba(0,255,0,1)"}, {"hoverLabel": "Reynoldsburg Battelle Fab Lab", "pos": {"lat": 39.9707602, "lng": -82.7514846}, "height": 1, "color": "rgba(0,255,0,1)"}, {"hoverLabel": "Fab Lab Siam", "pos": {"lat": 13.6813283, "lng": 100.5250476}, "height": 1, "color": "rgba(0,255,0,1)"}, {"hoverLabel": "Open Edge", "pos": {"lat": 48.8059678, "lng": 6.7129781}, "height": 1, "color": "rgba(0,255,0,1)"}, {"hoverLabel": "FabLab M\u00fcnster", "pos": {"lat": 51.9606649, "lng": 7.62613469999997}, "height": 1, "color": "rgba(0,255,0,1)"}, {"hoverLabel": "TechF@ctory", "pos": {"lat": 44.737572, "lng": 1.384484}, "height": 1, "color": "rgba(0,255,0,1)"}, {"hoverLabel": "Greenhouse MakerLab", "pos": {"lat": 42.0549666, "lng": -87.9162893}, "height": 1, "color": "rgba(0,255,0,1)"}, {"hoverLabel": "DesignCNC", "pos": {"lat": -23.223701, "lng": -45.9009074}, "height": 1, "color": "rgba(0,255,0,1)"}, {"hoverLabel": "Fab Lab Nantong", "pos": {"lat": 31.97652, "lng": 120.91184}, "height": 1, "color": "rgba(0,255,0,1)"}, {"hoverLabel": "Maker Hanoi", "pos": {"lat": 21.0422533, "lng": 105.8050006}, "height": 1, "color": "rgba(0,255,0,1)"}, {"hoverLabel": "InThinks", "pos": {"lat": 23.2301233, "lng": 77.4351452}, "height": 1, "color": "rgba(0,255,0,1)"}, {"hoverLabel": "Polsky Exchange Fab Lab", "pos": {"lat": 41.7993582, "lng": -87.589461}, "height": 1, "color": "rgba(0,255,0,1)"}, {"hoverLabel": "FabLab SENA Popay\u00e1n", "pos": {"lat": 2.5, "lng": -76.83333}, "height": 1, "color": "rgba(0,255,0,1)"}, {"hoverLabel": "FabLab Truck", "pos": {"lat": 52.3669765, "lng": 4.9371453}, "height": 1, "color": "rgba(0,255,0,1)"}, {"hoverLabel": "Fablab XI\u2019AN", "pos": {"lat": 34.24109, "lng": 108.92883}, "height": 1, "color": "rgba(0,255,0,1)"}, {"hoverLabel": "JunksionXlabs", "pos": {"lat": 18.0092724088956, "lng": -76.745635877771}, "height": 1, "color": "rgba(0,255,0,1)"}, {"hoverLabel": "Fab Lab Ajaccio", "pos": {"lat": 41.926479, "lng": 8.734842}, "height": 1, "color": "rgba(0,255,0,1)"}, {"hoverLabel": "Marymount School Fab Lab", "pos": {"lat": 40.786553, "lng": -73.951068}, "height": 1, "color": "rgba(0,255,0,1)"}, {"hoverLabel": "INSTITUTO FAB LAB BRASIL", "pos": {"lat": -23.5551806, "lng": -46.6739904}, "height": 1, "color": "rgba(0,255,0,1)"}, {"hoverLabel": "Le Village Graphic - FabLab", "pos": {"lat": 43.5933701, "lng": 7.0574066}, "height": 1, "color": "rgba(0,255,0,1)"}, {"hoverLabel": "DAU Fab Lab", "pos": {"lat": 24.7135517, "lng": 46.6752957}, "height": 1, "color": "rgba(0,255,0,1)"}, {"hoverLabel": "Sustainable South Bronx", "pos": {"lat": 40.85, "lng": -73.866667}, "height": 1, "color": "rgba(0,255,0,1)"}, {"hoverLabel": "Mobile Fab Lab, Fab Labs Carolinas", "pos": {"lat": 35.9940329, "lng": -78.898619}, "height": 1, "color": "rgba(0,255,0,1)"}, {"hoverLabel": "Upper St. Clair Fab Lab", "pos": {"lat": 40.3347506, "lng": -80.0709048}, "height": 1, "color": "rgba(0,255,0,1)"}, {"hoverLabel": "Sinclair Community College Fab Lab", "pos": {"lat": 39.7589478, "lng": -84.1916069}, "height": 1, "color": "rgba(0,255,0,1)"}, {"hoverLabel": "le ]ProtoLab[", "pos": {"lat": 45.7683976, "lng": 3.0874298}, "height": 1, "color": "rgba(0,255,0,1)"}, {"hoverLabel": "Brescia Fablab", "pos": {"lat": 45.5227168, "lng": 10.1981729}, "height": 1, "color": "rgba(0,255,0,1)"}, {"hoverLabel": "MC2STEM High School", "pos": {"lat": 41.5406429, "lng": -81.5591692}, "height": 1, "color": "rgba(0,255,0,1)"}, {"hoverLabel": "Fab lab Riyadh", "pos": {"lat": 24.7758235, "lng": 46.6602414}, "height": 1, "color": "rgba(0,255,0,1)"}, {"hoverLabel": "PCI ProtoLab", "pos": {"lat": 50.0307744, "lng": 21.9995255}, "height": 1, "color": "rgba(0,255,0,1)"}, {"hoverLabel": "Franklin School Fab Lab", "pos": {"lat": 40.7267105, "lng": -74.034551}, "height": 1, "color": "rgba(0,255,0,1)"}, {"hoverLabel": "FabLab N\u00fcLand", "pos": {"lat": 49.5581659, "lng": 11.3412278}, "height": 1, "color": "rgba(0,255,0,1)"}, {"hoverLabel": "FabLab Addis", "pos": {"lat": 9.0377172, "lng": 38.755227}, "height": 1, "color": "rgba(0,255,0,1)"}, {"hoverLabel": "FabLab-ZS PengLai ", "pos": {"lat": 37.8173823364193, "lng": 120.790047455261}, "height": 1, "color": "rgba(0,255,0,1)"}, {"hoverLabel": "Cofactory", "pos": {"lat": -31.4229036, "lng": -64.1944909}, "height": 1, "color": "rgba(0,255,0,1)"}, {"hoverLabel": "Fab Lab IDEX Tupac Amaru", "pos": {"lat": -13.5320473, "lng": -71.9289033}, "height": 1, "color": "rgba(0,255,0,1)"}, {"hoverLabel": "Fab Lab Escola SESI - Piratinga-Osasco", "pos": {"lat": -23.5141258, "lng": -46.7870101}, "height": 1, "color": "rgba(0,255,0,1)"}, {"hoverLabel": "FabLab Western Sicily", "pos": {"lat": 37.79989, "lng": 12.43166}, "height": 1, "color": "rgba(0,255,0,1)"}, {"hoverLabel": "FAB LAB Escola SESI-SP Araraquara", "pos": {"lat": -21.7773426, "lng": -48.1627634}, "height": 1, "color": "rgba(0,255,0,1)"}, {"hoverLabel": "Xplore Studio", "pos": {"lat": 24.7293398, "lng": 46.6416772}, "height": 1, "color": "rgba(0,255,0,1)"}, {"hoverLabel": "FabLab Centro de Innovaci\u00f3n UC", "pos": {"lat": -33.4978202, "lng": -70.6152617}, "height": 1, "color": "rgba(0,255,0,1)"}, {"hoverLabel": "Charlotte Latin Fab Lab", "pos": {"lat": 35.0798323, "lng": -80.7749055}, "height": 1, "color": "rgba(0,255,0,1)"}, {"hoverLabel": "FabLab Parul University Vadodara", "pos": {"lat": 22.2886958, "lng": 73.3634204}, "height": 1, "color": "rgba(0,255,0,1)"}, {"hoverLabel": "EnergyLab Lom\u00e9 by Energy Generation", "pos": {"lat": 6.1908239, "lng": 1.2492665}, "height": 1, "color": "rgba(0,255,0,1)"}, {"hoverLabel": "Exchange", "pos": {"lat": 41.609765, "lng": -86.721104}, "height": 1, "color": "rgba(0,255,0,1)"}, {"hoverLabel": "Maker Institute: mobile FabLab", "pos": {"lat": 50.1039782, "lng": 14.3905951}, "height": 1, "color": "rgba(0,255,0,1)"}, {"hoverLabel": "Sunlab", "pos": {"lat": 48.8000736637036, "lng": 2.16120527361068}, "height": 1, "color": "rgba(0,255,0,1)"}, {"hoverLabel": "Smart Mall", "pos": {"lat": -23.4963413, "lng": -47.4674963}, "height": 1, "color": "rgba(0,255,0,1)"}, {"hoverLabel": "QuitandaLab - FabLab", "pos": {"lat": -12.14754, "lng": -45.0235895}, "height": 1, "color": "rgba(0,255,0,1)"}, {"hoverLabel": "Central Piedmont Fab Lab", "pos": {"lat": 35.2150651, "lng": -80.8299504}, "height": 1, "color": "rgba(0,255,0,1)"}, {"hoverLabel": "FabLab Malopolska", "pos": {"lat": 50.0739205, "lng": 19.9126166}, "height": 1, "color": "rgba(0,255,0,1)"}, {"hoverLabel": "Goldorhack", "pos": {"lat": 48.8416945, "lng": -1.5643921}, "height": 1, "color": "rgba(0,255,0,1)"}, {"hoverLabel": "FabLab Ume\u00e5 University", "pos": {"lat": 63.8206014662172, "lng": 20.2779984301635}, "height": 1, "color": "rgba(0,255,0,1)"}, {"hoverLabel": "RIBOLAB", "pos": {"lat": 48.1945439, "lng": 7.3215483}, "height": 1, "color": "rgba(0,255,0,1)"}, {"hoverLabel": "Fab Lab Akureyri", "pos": {"lat": 65.6718188, "lng": -18.1016929}, "height": 1, "color": "rgba(0,255,0,1)"}, {"hoverLabel": "Victoria Makerspace", "pos": {"lat": 48.4940902, "lng": -123.412918}, "height": 1, "color": "rgba(0,255,0,1)"}, {"hoverLabel": "FabLab VdA", "pos": {"lat": 45.737998, "lng": 7.32818150000003}, "height": 1, "color": "rgba(0,255,0,1)"}, {"hoverLabel": "B105", "pos": {"lat": 35.16665, "lng": 129.16792}, "height": 1, "color": "rgba(0,255,0,1)"}, {"hoverLabel": "BWYA Fab Lab", "pos": {"lat": 40.02148, "lng": 116.44624}, "height": 1, "color": "rgba(0,255,0,1)"}, {"hoverLabel": "Fab Lab Provence", "pos": {"lat": 43.293476, "lng": 5.38993300000004}, "height": 1, "color": "rgba(0,255,0,1)"}, {"hoverLabel": "INIFD Pune Kothrud", "pos": {"lat": 18.51957, "lng": 73.85535}, "height": 1, "color": "rgba(0,255,0,1)"}, {"hoverLabel": "Qinhuangdao Innovation Laboratory", "pos": {"lat": 39.9344999, "lng": 119.61063}, "height": 1, "color": "rgba(0,255,0,1)"}, {"hoverLabel": "FabLab CEPT", "pos": {"lat": 23.040326, "lng": 72.548409}, "height": 1, "color": "rgba(0,255,0,1)"}, {"hoverLabel": "Fab Lab Zaragoza", "pos": {"lat": 41.6588512969835, "lng": -0.906888745013475}, "height": 1, "color": "rgba(0,255,0,1)"}, {"hoverLabel": "ATELIER DE CLARET", "pos": {"lat": 43.8608627, "lng": 3.9063548}, "height": 1, "color": "rgba(0,255,0,1)"}, {"hoverLabel": "Maker Institute: FabLab KD x FA", "pos": {"lat": 50.1051548, "lng": 14.3897184}, "height": 1, "color": "rgba(0,255,0,1)"}, {"hoverLabel": "FAB LAB RIO", "pos": {"lat": -22.8848648, "lng": -43.3124525}, "height": 1, "color": "rgba(0,255,0,1)"}, {"hoverLabel": "TaMaCo", "pos": {"lat": -34.6429576, "lng": -58.4060636}, "height": 1, "color": "rgba(0,255,0,1)"}, {"hoverLabel": "PlusX Brighton Fablab", "pos": {"lat": 50.842158, "lng": -0.121241}, "height": 1, "color": "rgba(0,255,0,1)"}, {"hoverLabel": "Shaoxing Open Innovation Lab", "pos": {"lat": 29.9966586, "lng": 120.5647896}, "height": 1, "color": "rgba(0,255,0,1)"}, {"hoverLabel": "F\u00e1brica de inventores", "pos": {"lat": 21.0573928821642, "lng": -89.531033660675}, "height": 1, "color": "rgba(0,255,0,1)"}, {"hoverLabel": "Fab Lab UPeU ", "pos": {"lat": -11.9917125, "lng": -76.8402031}, "height": 1, "color": "rgba(0,255,0,1)"}, {"hoverLabel": "Fablab,Noida", "pos": {"lat": 28.615502, "lng": 77.3660378}, "height": 1, "color": "rgba(0,255,0,1)"}, {"hoverLabel": "Fablab Groningen", "pos": {"lat": 53.2075291, "lng": 6.5569822}, "height": 1, "color": "rgba(0,255,0,1)"}, {"hoverLabel": "Developer Fab Lab", "pos": {"lat": 9.1068472, "lng": 7.4097413}, "height": 1, "color": "rgba(0,255,0,1)"}, {"hoverLabel": "FabLabz", "pos": {"lat": 11.0222538, "lng": 76.9869669}, "height": 1, "color": "rgba(0,255,0,1)"}, {"hoverLabel": "Creative Lab", "pos": {"lat": 48.7603716, "lng": 2.08537160000003}, "height": 1, "color": "rgba(0,255,0,1)"}, {"hoverLabel": "LABSud Montpellier", "pos": {"lat": 43.6150758, "lng": 3.91048449999994}, "height": 1, "color": "rgba(0,255,0,1)"}, {"hoverLabel": "Createch", "pos": {"lat": 43.6651743, "lng": 1.5040706}, "height": 1, "color": "rgba(0,255,0,1)"}, {"hoverLabel": "iLab", "pos": {"lat": -23.0069652, "lng": -43.310881}, "height": 1, "color": "rgba(0,255,0,1)"},